[{'city': 'Agapura, Hyderabad', 'type': '17', 'area': 'Telangana', 'country': 'India', 'PLZ': '500001', 'phone': '', 'street': '', 'POI': '', 'lat': 17.38624165141692, 'house_no': '', 'formatted_address': 'Agapura, Hyderabad 500001, Telangana, India', 'lng': 78.4636902809143}, {'city': 'Mangal Hat (Sitarampet), Hyderabad', 'type': '18', 'area': 'Telangana', 'country': 'India', 'PLZ': '500001', 'phone': '', 'street': '', 'POI': '', 'lat': 17.38225877004683, 'house_no': '', 'formatted_address': 'Mangal Hat (Sitarampet), Hyderabad 500001, Telangana, India', 'lng': 78.46361517906189}, {'city': 'New Mallepally, Hyderabad', 'type': '17', 'area': 'Telangana', 'country': 'India', 'PLZ': '500001', 'phone': '', 'street': '', 'POI': '', 'lat': 17.39130971701876, 'house_no': '', 'formatted_address': 'New Mallepally, Hyderabad 500001, Telangana, India', 'lng': 78.46092224121094}, {'city': 'Gosha Mahal (Hindi Nagar), Hyderabad', 'type': '18', 'area': 'Telangana', 'country': 'India', 'PLZ': '500001', 'phone': '', 'street': '', 'POI': '', 'lat': 17.3835898197369, 'house_no': '', 'formatted_address': 'Gosha Mahal (Hindi Nagar), Hyderabad 500001, Telangana, India', 'lng': 78.46872210502625}, {'city': 'Abids (Chapel Road), Hyderabad', 'type': '18', 'area': 'Telangana', 'country': 'India', 'PLZ': '500001', 'phone': '', 'street': '', 'POI': '', 'lat': 17.39499549472296, 'house_no': '', 'formatted_address': 'Abids (Chapel Road), Hyderabad 500001, Telangana, India', 'lng': 78.4729278087616}, {'city': 'Nampally, Hyderabad', 'type': '16', 'area': 'Telangana', 'country': 'India', 'PLZ': '500001', 'phone': '', 'street': '', 'POI': '', 'lat': 17.39058279098116, 'house_no': '', 'formatted_address': 'Nampally, Hyderabad 500001, Telangana, India', 'lng': 78.46868991851807}, {'city': 'Nampally (Bhagya Nagar Society Colony), Hyderabad', 'type': '18', 'area': 'Telangana', 'country': 'India', 'PLZ': '500001', 'phone': '', 'street': '', 'POI': '', 'lat': 17.38493109847822, 'house_no': '', 'formatted_address': 'Nampally (Bhagya Nagar Society Colony), Hyderabad 500001, Telangana, India', 'lng': 78.47355008125305}, {'city': 'Koti (Kanda Swamy Bagh), Hyderabad', 'type': '18', 'area': 'Telangana', 'country': 'India', 'PLZ': '500001', 'phone': '', 'street': '', 'POI': '', 'lat': 17.38814603192628, 'house_no': '', 'formatted_address': 'Koti (Kanda Swamy Bagh), Hyderabad 500001, Telangana, India', 'lng': 78.483806848526}, {'city': 'Agapura (Swami Debananda Nagar), Hyderabad', 'type': '18', 'area': 'Telangana', 'country': 'India', 'PLZ': '500001', 'phone': '', 'street': '', 'POI': '', 'lat': 17.38510515683089, 'house_no': '', 'formatted_address': 'Agapura (Swami Debananda Nagar), Hyderabad 500001, Telangana, India', 'lng': 78.465975522995}, {'city': 'Mangal Hat, Hyderabad', 'type': '18', 'area': 'Telangana', 'country': 'India', 'PLZ': '500001', 'phone': '', 'street': '', 'POI': '', 'lat': 17.38191064776174, 'house_no': '', 'formatted_address': 'Mangal Hat, Hyderabad 500001, Telangana, India', 'lng': 78.46124410629272}, {'city': 'Nampally (Yousufain), Hyderabad', 'type': '18', 'area': 'Telangana', 'country': 'India', 'PLZ': '500001', 'phone': '', 'street': '', 'POI': '', 'lat': 17.39039849941405, 'house_no': '', 'formatted_address': 'Nampally (Yousufain), Hyderabad 500001, Telangana, India', 'lng': 78.46546053886414}, {'city': 'Nampally (Patel Nagar), Hyderabad', 'type': '18', 'area': 'Telangana', 'country': 'India', 'PLZ': '500001', 'phone': '', 'street': '', 'POI': '', 'lat': 17.38786959082406, 'house_no': '', 'formatted_address': 'Nampally (Patel Nagar), Hyderabad 500001, Telangana, India', 'lng': 78.46741318702698}, {'city': 'Mallepally, Hyderabad', 'type': '18', 'area': 'Telangana', 'country': 'India', 'PLZ': '500001', 'phone': '', 'street': '', 'POI': '', 'lat': 17.38583210463183, 'house_no': '', 'formatted_address': 'Mallepally, Hyderabad 500001, Telangana, India', 'lng': 78.45859944820404}, {'city': 'Abids (Chirag Ali Lane), Hyderabad', 'type': '18', 'area': 'Telangana', 'country': 'India', 'PLZ': '500001', 'phone': '', 'street': '', 'POI': '', 'lat': 17.39219021511121, 'house_no': '', 'formatted_address': 'Abids (Chirag Ali Lane), Hyderabad 500001, Telangana, India', 'lng': 78.47463369369507}, {'city': 'Abids (Troop Bazar), Hyderabad', 'type': '18', 'area': 'Telangana', 'country': 'India', 'PLZ': '500001', 'phone': '', 'street': '', 'POI': '', 'lat': 17.38579114990291, 'house_no': '', 'formatted_address': 'Abids (Troop Bazar), Hyderabad 500001, Telangana, India', 'lng': 78.47910761833191}, {'city': 'Basheer Bagh (Gunfoundry), Hyderabad', 'type': '18', 'area': 'Telangana', 'country': 'India', 'PLZ': '500001', 'phone': '', 'street': '', 'POI': '', 'lat': 17.39459620572566, 'house_no': '', 'formatted_address': 'Basheer Bagh (Gunfoundry), Hyderabad 500001, Telangana, India', 'lng': 78.47682237625122}, {'city': 'Gosha Mahal (Sree Sidhivinayak Colony), Hyderabad', 'type': '18', 'area': 'Telangana', 'country': 'India', 'PLZ': '500001', 'phone': '', 'street': '', 'POI': '', 'lat': 17.38387650609542, 'house_no': '', 'formatted_address': 'Gosha Mahal (Sree Sidhivinayak Colony), Hyderabad 500001, Telangana, India', 'lng': 78.46706986427307}, {'city': 'Abids (Mahesh Nagar Colony), Hyderabad', 'type': '18', 'area': 'Telangana', 'country': 'India', 'PLZ': '500001', 'phone': '', 'street': '', 'POI': '', 'lat': 17.39240521981556, 'house_no': '', 'formatted_address': 'Abids (Mahesh Nagar Colony), Hyderabad 500001, Telangana, India', 'lng': 78.47154378890991}, {'city': 'Nampally (Ghouse Pura), Hyderabad', 'type': '18', 'area': 'Telangana', 'country': 'India', 'PLZ': '500001', 'phone': '', 'street': '', 'POI': '', 'lat': 17.38541231822586, 'house_no': '', 'formatted_address': 'Nampally (Ghouse Pura), Hyderabad 500001, Telangana, India', 'lng': 78.46712350845337}, {'city': 'Ram Koti (Eden Bagh), Hyderabad', 'type': '18', 'area': 'Telangana', 'country': 'India', 'PLZ': '500001', 'phone': '', 'street': '', 'POI': '', 'lat': 17.39291713476105, 'house_no': '', 'formatted_address': 'Ram Koti (Eden Bagh), Hyderabad 500001, Telangana, India', 'lng': 78.4849762916565}, {'city': 'New Mallepally (Habeeb Nagar), Hyderabad', 'type': '18', 'area': 'Telangana', 'country': 'India', 'PLZ': '500001', 'phone': '', 'street': '', 'POI': '', 'lat': 17.39054183731562, 'house_no': '', 'formatted_address': 'New Mallepally (Habeeb Nagar), Hyderabad 500001, Telangana, India', 'lng': 78.46064329147339}, {'city': 'Koti (Raghunath Bagh), Hyderabad', 'type': '18', 'area': 'Telangana', 'country': 'India', 'PLZ': '500001', 'phone': '', 'street': '', 'POI': '', 'lat': 17.38958966200738, 'house_no': '', 'formatted_address': 'Koti (Raghunath Bagh), Hyderabad 500001, Telangana, India', 'lng': 78.48507285118103}, {'city': 'Agapura (Bharat Nagar), Hyderabad', 'type': '18', 'area': 'Telangana', 'country': 'India', 'PLZ': '500001', 'phone': '', 'street': '', 'POI': '', 'lat': 17.38743957050152, 'house_no': '', 'formatted_address': 'Agapura (Bharat Nagar), Hyderabad 500001, Telangana, India', 'lng': 78.46644759178162}, {'city': 'Abids (Kattel Mandi), Hyderabad', 'type': '18', 'area': 'Telangana', 'country': 'India', 'PLZ': '500001', 'phone': '', 'street': '', 'POI': '', 'lat': 17.38777744369716, 'house_no': '', 'formatted_address': 'Abids (Kattel Mandi), Hyderabad 500001, Telangana, India', 'lng': 78.47364664077759}, {'city': 'Fateh Maidan, Hyderabad', 'type': '17', 'area': 'Telangana', 'country': 'India', 'PLZ': '500001', 'phone': '', 'street': '', 'POI': '', 'lat': 17.39842524892163, 'house_no': '', 'formatted_address': 'Fateh Maidan, Hyderabad 500001, Telangana, India', 'lng': 78.47185492515564}, {'city': 'Sitaram Bagh, Hyderabad', 'type': '18', 'area': 'Telangana', 'country': 'India', 'PLZ': '500001', 'phone': '', 'street': '', 'POI': '', 'lat': 17.38394817761487, 'house_no': '', 'formatted_address': 'Sitaram Bagh, Hyderabad 500001, Telangana, India', 'lng': 78.46188247203827}, {'city': 'Basheer Bagh, Hyderabad', 'type': '17', 'area': 'Telangana', 'country': 'India', 'PLZ': '500001', 'phone': '', 'street': '', 'POI': '', 'lat': 17.40001212834992, 'house_no': '', 'formatted_address': 'Basheer Bagh, Hyderabad 500001, Telangana, India', 'lng': 78.47537398338318}, {'city': 'Abids (Bogulkunta), Hyderabad', 'type': '18', 'area': 'Telangana', 'country': 'India', 'PLZ': '500001', 'phone': '', 'street': '', 'POI': '', 'lat': 17.39002991572286, 'house_no': '', 'formatted_address': 'Abids (Bogulkunta), Hyderabad 500001, Telangana, India', 'lng': 78.48026633262634}, {'city': 'Agapura (Darus Salam), Hyderabad', 'type': '18', 'area': 'Telangana', 'country': 'India', 'PLZ': '500001', 'phone': '', 'street': '', 'POI': '', 'lat': 17.38381507334211, 'house_no': '', 'formatted_address': 'Agapura (Darus Salam), Hyderabad 500001, Telangana, India', 'lng': 78.46436619758606}, {'city': 'Gosha Mahal (Malakunta), Hyderabad', 'type': '18', 'area': 'Telangana', 'country': 'India', 'PLZ': '500001', 'phone': '', 'street': '', 'POI': '', 'lat': 17.3825045030259, 'house_no': '', 'formatted_address': 'Gosha Mahal (Malakunta), Hyderabad 500001, Telangana, India', 'lng': 78.47256302833557}, {'city': 'Talab Katta, Hyderabad', 'type': '17', 'area': 'Telangana', 'country': 'India', 'PLZ': '500002', 'phone': '', 'street': '', 'POI': '', 'lat': 17.35465266625051, 'house_no': '', 'formatted_address': 'Talab Katta, Hyderabad 500002, Telangana, India', 'lng': 78.48446130752563}, {'city': 'Darulshifa (Purani Haveli), Hyderabad', 'type': '18', 'area': 'Telangana', 'country': 'India', 'PLZ': '500002', 'phone': '', 'street': '', 'POI': '', 'lat': 17.3654559953349, 'house_no': '', 'formatted_address': 'Darulshifa (Purani Haveli), Hyderabad 500002, Telangana, India', 'lng': 78.4823477268219}, {'city': 'Moghalpura, Hyderabad', 'type': '17', 'area': 'Telangana', 'country': 'India', 'PLZ': '500002', 'phone': '', 'street': '', 'POI': '', 'lat': 17.35685434421779, 'house_no': '', 'formatted_address': 'Moghalpura, Hyderabad 500002, Telangana, India', 'lng': 78.47628593444824}, {'city': 'Talab Chanchalam, Hyderabad', 'type': '17', 'area': 'Telangana', 'country': 'India', 'PLZ': '500002', 'phone': '', 'street': '', 'POI': '', 'lat': 17.35745852098976, 'house_no': '', 'formatted_address': 'Talab Chanchalam, Hyderabad 500002, Telangana, India', 'lng': 78.48484754562378}, {'city': 'Kotla Alijah, Hyderabad', 'type': '17', 'area': 'Telangana', 'country': 'India', 'PLZ': '500002', 'phone': '', 'street': '', 'POI': '', 'lat': 17.3597932870863, 'house_no': '', 'formatted_address': 'Kotla Alijah, Hyderabad 500002, Telangana, India', 'lng': 78.47773432731628}, {'city': 'Yakruthpura, Hyderabad', 'type': '18', 'area': 'Telangana', 'country': 'India', 'PLZ': '500002', 'phone': '', 'street': '', 'POI': '', 'lat': 17.36067905679272, 'house_no': '', 'formatted_address': 'Yakruthpura, Hyderabad 500002, Telangana, India', 'lng': 78.48229944705963}, {'city': 'Mir Chowk, Hyderabad', 'type': '17', 'area': 'Telangana', 'country': 'India', 'PLZ': '500002', 'phone': '', 'street': '', 'POI': '', 'lat': 17.36330562040578, 'house_no': '', 'formatted_address': 'Mir Chowk, Hyderabad 500002, Telangana, India', 'lng': 78.47745537757874}, {'city': 'Quil Wath, Hyderabad', 'type': '17', 'area': 'Telangana', 'country': 'India', 'PLZ': '500002', 'phone': '', 'street': '', 'POI': '', 'lat': 17.35829822099288, 'house_no': '', 'formatted_address': 'Quil Wath, Hyderabad 500002, Telangana, India', 'lng': 78.47110390663147}, {'city': 'Pathar Gatti, Hyderabad', 'type': '17', 'area': 'Telangana', 'country': 'India', 'PLZ': '500002', 'phone': '', 'street': '', 'POI': '', 'lat': 17.36710459902228, 'house_no': '', 'formatted_address': 'Pathar Gatti, Hyderabad 500002, Telangana, India', 'lng': 78.4784746170044}, {'city': 'Talab Chanchalam (Alijakotla), Hyderabad', 'type': '18', 'area': 'Telangana', 'country': 'India', 'PLZ': '500002', 'phone': '', 'street': '', 'POI': '', 'lat': 17.3599571292044, 'house_no': '', 'formatted_address': 'Talab Chanchalam (Alijakotla), Hyderabad 500002, Telangana, India', 'lng': 78.48044872283936}, {'city': 'Talab Katta (Aman Nagar B Colony), Hyderabad', 'type': '18', 'area': 'Telangana', 'country': 'India', 'PLZ': '500002', 'phone': '', 'street': '', 'POI': '', 'lat': 17.35425328927451, 'house_no': '', 'formatted_address': 'Talab Katta (Aman Nagar B Colony), Hyderabad 500002, Telangana, India', 'lng': 78.4829592704773}, {'city': 'Talab Chanchalam (Aman Nagar Colony), Hyderabad', 'type': '18', 'area': 'Telangana', 'country': 'India', 'PLZ': '500002', 'phone': '', 'street': '', 'POI': '', 'lat': 17.35698746808436, 'house_no': '', 'formatted_address': 'Talab Chanchalam (Aman Nagar Colony), Hyderabad 500002, Telangana, India', 'lng': 78.48423600196838}, {'city': 'Kotla Alijah (Chow Mohalla), Hyderabad', 'type': '18', 'area': 'Telangana', 'country': 'India', 'PLZ': '500002', 'phone': '', 'street': '', 'POI': '', 'lat': 17.361247380766, 'house_no': '', 'formatted_address': 'Kotla Alijah (Chow Mohalla), Hyderabad 500002, Telangana, India', 'lng': 78.47567439079285}, {'city': 'Talab Chanchalam (Dhobighat), Hyderabad', 'type': '18', 'area': 'Telangana', 'country': 'India', 'PLZ': '500002', 'phone': '', 'street': '', 'POI': '', 'lat': 17.35765308596701, 'house_no': '', 'formatted_address': 'Talab Chanchalam (Dhobighat), Hyderabad 500002, Telangana, India', 'lng': 78.48793745040894}, {'city': 'Yakruthpura (Etebar Chowk), Hyderabad', 'type': '18', 'area': 'Telangana', 'country': 'India', 'PLZ': '500002', 'phone': '', 'street': '', 'POI': '', 'lat': 17.3621177834346, 'house_no': '', 'formatted_address': 'Yakruthpura (Etebar Chowk), Hyderabad 500002, Telangana, India', 'lng': 78.48048090934753}, {'city': 'Talab Katta (Murad Mahal Colony), Hyderabad', 'type': '18', 'area': 'Telangana', 'country': 'India', 'PLZ': '500002', 'phone': '', 'street': '', 'POI': '', 'lat': 17.35521588871245, 'house_no': '', 'formatted_address': 'Talab Katta (Murad Mahal Colony), Hyderabad 500002, Telangana, India', 'lng': 78.4819507598877}, {'city': 'Pathar Gatti (Murag Khana), Hyderabad', 'type': '18', 'area': 'Telangana', 'country': 'India', 'PLZ': '500002', 'phone': '', 'street': '', 'POI': '', 'lat': 17.36604990396283, 'house_no': '', 'formatted_address': 'Pathar Gatti (Murag Khana), Hyderabad 500002, Telangana, India', 'lng': 78.47810983657837}, {'city': 'Quil Wath (Laad Bazar), Hyderabad', 'type': '18', 'area': 'Telangana', 'country': 'India', 'PLZ': '500002', 'phone': '', 'street': '', 'POI': '', 'lat': 17.36137026139336, 'house_no': '', 'formatted_address': 'Quil Wath (Laad Bazar), Hyderabad 500002, Telangana, India', 'lng': 78.47235918045044}, {'city': 'Yakruthpura (Rangeela Shah Mohalla), Hyderabad', 'type': '18', 'area': 'Telangana', 'country': 'India', 'PLZ': '500002', 'phone': '', 'street': '', 'POI': '', 'lat': 17.36048961507667, 'house_no': '', 'formatted_address': 'Yakruthpura (Rangeela Shah Mohalla), Hyderabad 500002, Telangana, India', 'lng': 78.48409652709961}, {'city': 'Quil Wath (Charminar), Hyderabad', 'type': '18', 'area': 'Telangana', 'country': 'India', 'PLZ': '500002', 'phone': '', 'street': '', 'POI': '', 'lat': 17.36118594042143, 'house_no': '', 'formatted_address': 'Quil Wath (Charminar), Hyderabad 500002, Telangana, India', 'lng': 78.47451567649841}, {'city': 'Talab Chanchalam (Hussani Kotha Colony), Hyderabad', 'type': '18', 'area': 'Telangana', 'country': 'India', 'PLZ': '500002', 'phone': '', 'street': '', 'POI': '', 'lat': 17.35851326549692, 'house_no': '', 'formatted_address': 'Talab Chanchalam (Hussani Kotha Colony), Hyderabad 500002, Telangana, India', 'lng': 78.48338842391968}, {'city': 'Pathar Gatti (Irani Gali), Hyderabad', 'type': '18', 'area': 'Telangana', 'country': 'India', 'PLZ': '500002', 'phone': '', 'street': '', 'POI': '', 'lat': 17.36637757686447, 'house_no': '', 'formatted_address': 'Pathar Gatti (Irani Gali), Hyderabad 500002, Telangana, India', 'lng': 78.48015904426575}, {'city': 'Pathar Gatti (Madina Circle), Hyderabad', 'type': '18', 'area': 'Telangana', 'country': 'India', 'PLZ': '500002', 'phone': '', 'street': '', 'POI': '', 'lat': 17.36880438604814, 'house_no': '', 'formatted_address': 'Pathar Gatti (Madina Circle), Hyderabad 500002, Telangana, India', 'lng': 78.47638249397278}, {'city': 'Mir Chowk (Panje Shah), Hyderabad', 'type': '18', 'area': 'Telangana', 'country': 'India', 'PLZ': '500002', 'phone': '', 'street': '', 'POI': '', 'lat': 17.36329538046481, 'house_no': '', 'formatted_address': 'Mir Chowk (Panje Shah), Hyderabad 500002, Telangana, India', 'lng': 78.478764295578}, {'city': 'Mir Chowk (Meer Alam Mandi), Hyderabad', 'type': '18', 'area': 'Telangana', 'country': 'India', 'PLZ': '500002', 'phone': '', 'street': '', 'POI': '', 'lat': 17.36297794201038, 'house_no': '', 'formatted_address': 'Mir Chowk (Meer Alam Mandi), Hyderabad 500002, Telangana, India', 'lng': 78.47924709320068}, {'city': 'Talab Chanchalam (Bibi Bazar), Hyderabad', 'type': '18', 'area': 'Telangana', 'country': 'India', 'PLZ': '500002', 'phone': '', 'street': '', 'POI': '', 'lat': 17.35894335374813, 'house_no': '', 'formatted_address': 'Talab Chanchalam (Bibi Bazar), Hyderabad 500002, Telangana, India', 'lng': 78.47984790802002}, {'city': 'Bansilalpet (Arunjyoti Colony), Secunderabad', 'type': '18', 'area': 'Telangana', 'country': 'India', 'PLZ': '500003', 'phone': '', 'street': '', 'POI': '', 'lat': 17.42608616715006, 'house_no': '', 'formatted_address': 'Bansilalpet (Arunjyoti Colony), Secunderabad 500003, Telangana, India', 'lng': 78.49390268325806}, {'city': 'Old Bhoiguda, Secunderabad', 'type': '16', 'area': 'Telangana', 'country': 'India', 'PLZ': '500003', 'phone': '', 'street': '', 'POI': '', 'lat': 17.43455149533319, 'house_no': '', 'formatted_address': 'Old Bhoiguda, Secunderabad 500003, Telangana, India', 'lng': 78.49112391471863}, {'city': 'Picket (Vijaya Nagar Colony), Secunderabad', 'type': '18', 'area': 'Telangana', 'country': 'India', 'PLZ': '500003', 'phone': '', 'street': '', 'POI': '', 'lat': 17.45278081374566, 'house_no': '', 'formatted_address': 'Picket (Vijaya Nagar Colony), Secunderabad 500003, Telangana, India', 'lng': 78.50003957748413}, {'city': 'Patigadda, Secunderabad', 'type': '17', 'area': 'Telangana', 'country': 'India', 'PLZ': '500003', 'phone': '', 'street': '', 'POI': '', 'lat': 17.43505305626353, 'house_no': '', 'formatted_address': 'Patigadda, Secunderabad 500003, Telangana, India', 'lng': 78.47594261169434}, {'city': 'Bansilalpet (Gandhi Nagar), Secunderabad', 'type': '18', 'area': 'Telangana', 'country': 'India', 'PLZ': '500003', 'phone': '', 'street': '', 'POI': '', 'lat': 17.42518535941721, 'house_no': '', 'formatted_address': 'Bansilalpet (Gandhi Nagar), Secunderabad 500003, Telangana, India', 'lng': 78.49532961845398}, {'city': 'General Bazar, Secunderabad', 'type': '17', 'area': 'Telangana', 'country': 'India', 'PLZ': '500003', 'phone': '', 'street': '', 'POI': '', 'lat': 17.43939303611004, 'house_no': '', 'formatted_address': 'General Bazar, Secunderabad 500003, Telangana, India', 'lng': 78.49357008934021}, {'city': 'Kalasiguda, Secunderabad', 'type': '17', 'area': 'Telangana', 'country': 'India', 'PLZ': '500003', 'phone': '', 'street': '', 'POI': '', 'lat': 17.43974104888973, 'house_no': '', 'formatted_address': 'Kalasiguda, Secunderabad 500003, Telangana, India', 'lng': 78.4924864768982}, {'city': 'Nallagutta (DV Colony), Secunderabad', 'type': '18', 'area': 'Telangana', 'country': 'India', 'PLZ': '500003', 'phone': '', 'street': '', 'POI': '', 'lat': 17.43616876848983, 'house_no': '', 'formatted_address': 'Nallagutta (DV Colony), Secunderabad 500003, Telangana, India', 'lng': 78.48398923873901}, {'city': 'Picket (Washington), Secunderabad', 'type': '18', 'area': 'Telangana', 'country': 'India', 'PLZ': '500003', 'phone': '', 'street': '', 'POI': '', 'lat': 17.45171637810803, 'house_no': '', 'formatted_address': 'Picket (Washington), Secunderabad 500003, Telangana, India', 'lng': 78.49879503250122}, {'city': 'Subhash Road (Kailash Market), Secunderabad', 'type': '18', 'area': 'Telangana', 'country': 'India', 'PLZ': '500003', 'phone': '', 'street': '', 'POI': '', 'lat': 17.43648607989507, 'house_no': '', 'formatted_address': 'Subhash Road (Kailash Market), Secunderabad 500003, Telangana, India', 'lng': 78.49011540412903}, {'city': 'Subhash Road (Tobacco Bazar), Secunderabad', 'type': '18', 'area': 'Telangana', 'country': 'India', 'PLZ': '500003', 'phone': '', 'street': '', 'POI': '', 'lat': 17.43763249069531, 'house_no': '', 'formatted_address': 'Subhash Road (Tobacco Bazar), Secunderabad 500003, Telangana, India', 'lng': 78.48945021629333}, {'city': 'Prenderghast Road (Sindhi Colony), Secunderabad', 'type': '18', 'area': 'Telangana', 'country': 'India', 'PLZ': '500003', 'phone': '', 'street': '', 'POI': '', 'lat': 17.44181887607945, 'house_no': '', 'formatted_address': 'Prenderghast Road (Sindhi Colony), Secunderabad 500003, Telangana, India', 'lng': 78.48053455352783}, {'city': 'Paradise Circle, Secunderabad', 'type': '17', 'area': 'Telangana', 'country': 'India', 'PLZ': '500003', 'phone': '', 'street': '', 'POI': '', 'lat': 17.44187005379033, 'house_no': '', 'formatted_address': 'Paradise Circle, Secunderabad 500003, Telangana, India', 'lng': 78.48748683929443}, {'city': 'Ranigunj (Pan Bazar), Secunderabad', 'type': '18', 'area': 'Telangana', 'country': 'India', 'PLZ': '500003', 'phone': '', 'street': '', 'POI': '', 'lat': 17.43526801052587, 'house_no': '', 'formatted_address': 'Ranigunj (Pan Bazar), Secunderabad 500003, Telangana, India', 'lng': 78.48913908004761}, {'city': 'Hissamgunj (Pot Market), Secunderabad', 'type': '18', 'area': 'Telangana', 'country': 'India', 'PLZ': '500003', 'phone': '', 'street': '', 'POI': '', 'lat': 17.43487904548473, 'house_no': '', 'formatted_address': 'Hissamgunj (Pot Market), Secunderabad 500003, Telangana, India', 'lng': 78.49452495574951}, {'city': 'Rezimental Bazar, Secunderabad', 'type': '16', 'area': 'Telangana', 'country': 'India', 'PLZ': '500003', 'phone': '', 'street': '', 'POI': '', 'lat': 17.43893242993938, 'house_no': '', 'formatted_address': 'Rezimental Bazar, Secunderabad 500003, Telangana, India', 'lng': 78.5047173500061}, {'city': 'New Bhoiguda, Secunderabad', 'type': '18', 'area': 'Telangana', 'country': 'India', 'PLZ': '500003', 'phone': '', 'street': '', 'POI': '', 'lat': 17.43002203060856, 'house_no': '', 'formatted_address': 'New Bhoiguda, Secunderabad 500003, Telangana, India', 'lng': 78.49703550338745}, {'city': 'Bansilalpet (Babu Jagjeevanram Nagar), Secunderabad', 'type': '18', 'area': 'Telangana', 'country': 'India', 'PLZ': '500003', 'phone': '', 'street': '', 'POI': '', 'lat': 17.4298326607083, 'house_no': '', 'formatted_address': 'Bansilalpet (Babu Jagjeevanram Nagar), Secunderabad 500003, Telangana, India', 'lng': 78.4962522983551}, {'city': 'Hissamgunj (Monda Market), Secunderabad', 'type': '18', 'area': 'Telangana', 'country': 'India', 'PLZ': '500003', 'phone': '', 'street': '', 'POI': '', 'lat': 17.43489951734966, 'house_no': '', 'formatted_address': 'Hissamgunj (Monda Market), Secunderabad 500003, Telangana, India', 'lng': 78.49632740020752}, {'city': 'Ranigunj (Hyder Basti), Secunderabad', 'type': '18', 'area': 'Telangana', 'country': 'India', 'PLZ': '500003', 'phone': '', 'street': '', 'POI': '', 'lat': 17.43056966678187, 'house_no': '', 'formatted_address': 'Ranigunj (Hyder Basti), Secunderabad 500003, Telangana, India', 'lng': 78.4904158115387}, {'city': 'Ghas Mandi (Audiah Nagar), Secunderabad', 'type': '18', 'area': 'Telangana', 'country': 'India', 'PLZ': '500003', 'phone': '', 'street': '', 'POI': '', 'lat': 17.43291373575478, 'house_no': '', 'formatted_address': 'Ghas Mandi (Audiah Nagar), Secunderabad 500003, Telangana, India', 'lng': 78.4949541091919}, {'city': 'New Bhoiguda (Gollakomaraiah Colony), Secunderabad', 'type': '18', 'area': 'Telangana', 'country': 'India', 'PLZ': '500003', 'phone': '', 'street': '', 'POI': '', 'lat': 17.42617829496309, 'house_no': '', 'formatted_address': 'New Bhoiguda (Gollakomaraiah Colony), Secunderabad 500003, Telangana, India', 'lng': 78.49671363830566}, {'city': 'RP Road (Brugu Shetty Bazar), Secunderabad', 'type': '18', 'area': 'Telangana', 'country': 'India', 'PLZ': '500003', 'phone': '', 'street': '', 'POI': '', 'lat': 17.43589240004201, 'house_no': '', 'formatted_address': 'RP Road (Brugu Shetty Bazar), Secunderabad 500003, Telangana, India', 'lng': 78.49416017532349}, {'city': 'Prenderghast Road (Krishna Nagar Colony), Secunderabad', 'type': '18', 'area': 'Telangana', 'country': 'India', 'PLZ': '500003', 'phone': '', 'street': '', 'POI': '', 'lat': 17.44006858972286, 'house_no': '', 'formatted_address': 'Prenderghast Road (Krishna Nagar Colony), Secunderabad 500003, Telangana, India', 'lng': 78.48254084587097}, {'city': 'Ranigunj (Old Ghasmandi), Secunderabad', 'type': '18', 'area': 'Telangana', 'country': 'India', 'PLZ': '500003', 'phone': '', 'street': '', 'POI': '', 'lat': 17.43313892856852, 'house_no': '', 'formatted_address': 'Ranigunj (Old Ghasmandi), Secunderabad 500003, Telangana, India', 'lng': 78.49201440811157}, {'city': 'Hissamgunj (Ashok Nagar), Secunderabad', 'type': '18', 'area': 'Telangana', 'country': 'India', 'PLZ': '500003', 'phone': '', 'street': '', 'POI': '', 'lat': 17.43400898910115, 'house_no': '', 'formatted_address': 'Hissamgunj (Ashok Nagar), Secunderabad 500003, Telangana, India', 'lng': 78.49393486976624}, {'city': 'Bansilalpet, Secunderabad', 'type': '17', 'area': 'Telangana', 'country': 'India', 'PLZ': '500003', 'phone': '', 'street': '', 'POI': '', 'lat': 17.42767280632341, 'house_no': '', 'formatted_address': 'Bansilalpet, Secunderabad 500003, Telangana, India', 'lng': 78.49329113960266}, {'city': 'Nallagutta (Ramgopalpet), Secunderabad', 'type': '18', 'area': 'Telangana', 'country': 'India', 'PLZ': '500003', 'phone': '', 'street': '', 'POI': '', 'lat': 17.43548296453493, 'house_no': '', 'formatted_address': 'Nallagutta (Ramgopalpet), Secunderabad 500003, Telangana, India', 'lng': 78.48682165145874}, {'city': 'Old Race Course (Ombir Colony), Secunderabad', 'type': '18', 'area': 'Telangana', 'country': 'India', 'PLZ': '500003', 'phone': '', 'street': '', 'POI': '', 'lat': 17.45288828045971, 'house_no': '', 'formatted_address': 'Old Race Course (Ombir Colony), Secunderabad 500003, Telangana, India', 'lng': 78.49085569381714}, {'city': 'Nallagutta (Macleod Guda), Secunderabad', 'type': '18', 'area': 'Telangana', 'country': 'India', 'PLZ': '500003', 'phone': '', 'street': '', 'POI': '', 'lat': 17.43867653711974, 'house_no': '', 'formatted_address': 'Nallagutta (Macleod Guda), Secunderabad 500003, Telangana, India', 'lng': 78.48605990409851}, {'city': 'New Mallepally, Hyderabad', 'type': '17', 'area': 'Telangana', 'country': 'India', 'PLZ': '500004', 'phone': '', 'street': '', 'POI': '', 'lat': 17.39130971701876, 'house_no': '', 'formatted_address': 'New Mallepally, Hyderabad 500004, Telangana, India', 'lng': 78.46092224121094}, {'city': 'Masab Tank (Vijay Nagar Colony), Hyderabad', 'type': '18', 'area': 'Telangana', 'country': 'India', 'PLZ': '500004', 'phone': '', 'street': '', 'POI': '', 'lat': 17.39774442223532, 'house_no': '', 'formatted_address': 'Masab Tank (Vijay Nagar Colony), Hyderabad 500004, Telangana, India', 'lng': 78.45770359039307}, {'city': 'Nampally, Hyderabad', 'type': '16', 'area': 'Telangana', 'country': 'India', 'PLZ': '500004', 'phone': '', 'street': '', 'POI': '', 'lat': 17.39058279098116, 'house_no': '', 'formatted_address': 'Nampally, Hyderabad 500004, Telangana, India', 'lng': 78.46868991851807}, {'city': 'Nampally (Yousufain), Hyderabad', 'type': '18', 'area': 'Telangana', 'country': 'India', 'PLZ': '500004', 'phone': '', 'street': '', 'POI': '', 'lat': 17.39111518779881, 'house_no': '', 'formatted_address': 'Nampally (Yousufain), Hyderabad 500004, Telangana, India', 'lng': 78.4645539522171}, {'city': 'New Mallepally (Habeeb Nagar), Hyderabad', 'type': '18', 'area': 'Telangana', 'country': 'India', 'PLZ': '500004', 'phone': '', 'street': '', 'POI': '', 'lat': 17.39105375747586, 'house_no': '', 'formatted_address': 'New Mallepally (Habeeb Nagar), Hyderabad 500004, Telangana, India', 'lng': 78.46238136291504}, {'city': 'Red Hills, Hyderabad', 'type': '17', 'area': 'Telangana', 'country': 'India', 'PLZ': '500004', 'phone': '', 'street': '', 'POI': '', 'lat': 17.40034997832086, 'house_no': '', 'formatted_address': 'Red Hills, Hyderabad 500004, Telangana, India', 'lng': 78.4628963470459}, {'city': 'AC Guard, Hyderabad', 'type': '17', 'area': 'Telangana', 'country': 'India', 'PLZ': '500004', 'phone': '', 'street': '', 'POI': '', 'lat': 17.40234635176815, 'house_no': '', 'formatted_address': 'AC Guard, Hyderabad 500004, Telangana, India', 'lng': 78.45806837081909}, {'city': 'Nampally (Devi Bagh), Hyderabad', 'type': '18', 'area': 'Telangana', 'country': 'India', 'PLZ': '500004', 'phone': '', 'street': '', 'POI': '', 'lat': 17.39233355160885, 'house_no': '', 'formatted_address': 'Nampally (Devi Bagh), Hyderabad 500004, Telangana, India', 'lng': 78.46595406532288}, {'city': 'New Mallepally (Laxmi Nagar), Hyderabad', 'type': '18', 'area': 'Telangana', 'country': 'India', 'PLZ': '500004', 'phone': '', 'street': '', 'POI': '', 'lat': 17.39533335396285, 'house_no': '', 'formatted_address': 'New Mallepally (Laxmi Nagar), Hyderabad 500004, Telangana, India', 'lng': 78.45805764198303}, {'city': 'Fateh Maidan, Hyderabad', 'type': '18', 'area': 'Telangana', 'country': 'India', 'PLZ': '500004', 'phone': '', 'street': '', 'POI': '', 'lat': 17.39751406676753, 'house_no': '', 'formatted_address': 'Fateh Maidan, Hyderabad 500004, Telangana, India', 'lng': 78.47093760967255}, {'city': 'Bazar Ghat, Hyderabad', 'type': '17', 'area': 'Telangana', 'country': 'India', 'PLZ': '500004', 'phone': '', 'street': '', 'POI': '', 'lat': 17.3961421659712, 'house_no': '', 'formatted_address': 'Bazar Ghat, Hyderabad 500004, Telangana, India', 'lng': 78.46254229545593}, {'city': 'Basheer Bagh, Hyderabad', 'type': '18', 'area': 'Telangana', 'country': 'India', 'PLZ': '500004', 'phone': '', 'street': '', 'POI': '', 'lat': 17.39920333345901, 'house_no': '', 'formatted_address': 'Basheer Bagh, Hyderabad 500004, Telangana, India', 'lng': 78.47088396549225}, {'city': 'Nampally (Station Road), Hyderabad', 'type': '18', 'area': 'Telangana', 'country': 'India', 'PLZ': '500004', 'phone': '', 'street': '', 'POI': '', 'lat': 17.39121757162457, 'house_no': '', 'formatted_address': 'Nampally (Station Road), Hyderabad 500004, Telangana, India', 'lng': 78.47009539604187}, {'city': 'Saifabad, Hyderabad', 'type': '17', 'area': 'Telangana', 'country': 'India', 'PLZ': '500004', 'phone': '', 'street': '', 'POI': '', 'lat': 17.40392295949327, 'house_no': '', 'formatted_address': 'Saifabad, Hyderabad 500004, Telangana, India', 'lng': 78.46787452697754}, {'city': 'Khairtabad (Chintal Basti), Hyderabad', 'type': '18', 'area': 'Telangana', 'country': 'India', 'PLZ': '500004', 'phone': '', 'street': '', 'POI': '', 'lat': 17.40907243412978, 'house_no': '', 'formatted_address': 'Khairtabad (Chintal Basti), Hyderabad 500004, Telangana, India', 'lng': 78.45862627029419}, {'city': 'Khairtabad (Ananda Nagar Colony), Hyderabad', 'type': '18', 'area': 'Telangana', 'country': 'India', 'PLZ': '500004', 'phone': '', 'street': '', 'POI': '', 'lat': 17.41166247288603, 'house_no': '', 'formatted_address': 'Khairtabad (Ananda Nagar Colony), Hyderabad 500004, Telangana, India', 'lng': 78.45553636550903}, {'city': 'Lakdika Pool (P&T Officers Colony), Hyderabad', 'type': '18', 'area': 'Telangana', 'country': 'India', 'PLZ': '500004', 'phone': '', 'street': '', 'POI': '', 'lat': 17.4064823586614, 'house_no': '', 'formatted_address': 'Lakdika Pool (P&T Officers Colony), Hyderabad 500004, Telangana, India', 'lng': 78.46063256263733}, {'city': 'Masab Tank (Shyam Nagar), Hyderabad', 'type': '18', 'area': 'Telangana', 'country': 'India', 'PLZ': '500004', 'phone': '', 'street': '', 'POI': '', 'lat': 17.40524361393941, 'house_no': '', 'formatted_address': 'Masab Tank (Shyam Nagar), Hyderabad 500004, Telangana, India', 'lng': 78.45600843429565}, {'city': 'Khairtabad, Hyderabad', 'type': '16', 'area': 'Telangana', 'country': 'India', 'PLZ': '500004', 'phone': '', 'street': '', 'POI': '', 'lat': 17.41067969570424, 'house_no': '', 'formatted_address': 'Khairtabad, Hyderabad 500004, Telangana, India', 'lng': 78.46114754676819}, {'city': 'Erramanzil, Hyderabad', 'type': '16', 'area': 'Telangana', 'country': 'India', 'PLZ': '500004', 'phone': '', 'street': '', 'POI': '', 'lat': 17.41722120679631, 'house_no': '', 'formatted_address': 'Erramanzil, Hyderabad 500004, Telangana, India', 'lng': 78.45468878746033}, {'city': 'Lakdika Pool, Hyderabad', 'type': '17', 'area': 'Telangana', 'country': 'India', 'PLZ': '500004', 'phone': '', 'street': '', 'POI': '', 'lat': 17.40397414782786, 'house_no': '', 'formatted_address': 'Lakdika Pool, Hyderabad 500004, Telangana, India', 'lng': 78.46463441848755}, {'city': 'Khairtabad (Veer Nagar), Hyderabad', 'type': '18', 'area': 'Telangana', 'country': 'India', 'PLZ': '500004', 'phone': '', 'street': '', 'POI': '', 'lat': 17.40898029768751, 'house_no': '', 'formatted_address': 'Khairtabad (Veer Nagar), Hyderabad 500004, Telangana, India', 'lng': 78.4563410282135}, {'city': 'Erramanzil (Hilltop Colony), Hyderabad', 'type': '18', 'area': 'Telangana', 'country': 'India', 'PLZ': '500004', 'phone': '', 'street': '', 'POI': '', 'lat': 17.41507144026085, 'house_no': '', 'formatted_address': 'Erramanzil (Hilltop Colony), Hyderabad 500004, Telangana, India', 'lng': 78.45565438270569}, {'city': 'Khairtabad (Indira Nagar), Hyderabad', 'type': '18', 'area': 'Telangana', 'country': 'India', 'PLZ': '500004', 'phone': '', 'street': '', 'POI': '', 'lat': 17.41275785372343, 'house_no': '', 'formatted_address': 'Khairtabad (Indira Nagar), Hyderabad 500004, Telangana, India', 'lng': 78.46342206001282}, {'city': 'Erramanzil (Naveen Nagar), Hyderabad', 'type': '18', 'area': 'Telangana', 'country': 'India', 'PLZ': '500004', 'phone': '', 'street': '', 'POI': '', 'lat': 17.41412962980838, 'house_no': '', 'formatted_address': 'Erramanzil (Naveen Nagar), Hyderabad 500004, Telangana, India', 'lng': 78.45130920410156}, {'city': 'Khairtabad (Prem Nagar), Hyderabad', 'type': '18', 'area': 'Telangana', 'country': 'India', 'PLZ': '500004', 'phone': '', 'street': '', 'POI': '', 'lat': 17.40977881197711, 'house_no': '', 'formatted_address': 'Khairtabad (Prem Nagar), Hyderabad 500004, Telangana, India', 'lng': 78.4527575969696}, {'city': 'Khairtabad (Venkataraman Colony), Hyderabad', 'type': '18', 'area': 'Telangana', 'country': 'India', 'PLZ': '500004', 'phone': '', 'street': '', 'POI': '', 'lat': 17.41356658863176, 'house_no': '', 'formatted_address': 'Khairtabad (Venkataraman Colony), Hyderabad 500004, Telangana, India', 'lng': 78.45349788665771}, {'city': 'Masab Tank, Hyderabad', 'type': '18', 'area': 'Telangana', 'country': 'India', 'PLZ': '500004', 'phone': '', 'street': '', 'POI': '', 'lat': 17.4058117995443, 'house_no': '', 'formatted_address': 'Masab Tank, Hyderabad 500004, Telangana, India', 'lng': 78.45282733440399}, {'city': 'Khairtabad (Jagjeevan Nagar), Hyderabad', 'type': '18', 'area': 'Telangana', 'country': 'India', 'PLZ': '500004', 'phone': '', 'street': '', 'POI': '', 'lat': 17.41401702171189, 'house_no': '', 'formatted_address': 'Khairtabad (Jagjeevan Nagar), Hyderabad 500004, Telangana, India', 'lng': 78.4617269039154}, {'city': 'Khairtabad (Thuma Basti), Hyderabad', 'type': '18', 'area': 'Telangana', 'country': 'India', 'PLZ': '500004', 'phone': '', 'street': '', 'POI': '', 'lat': 17.41115061043016, 'house_no': '', 'formatted_address': 'Khairtabad (Thuma Basti), Hyderabad 500004, Telangana, India', 'lng': 78.45909833908081}, {'city': 'Jalapalle, Hyderabad', 'type': '17', 'area': 'Telangana', 'country': 'India', 'PLZ': '500005', 'phone': '', 'street': '', 'POI': '', 'lat': 17.28368305318778, 'house_no': '', 'formatted_address': 'Jalapalle, Hyderabad 500005, Telangana, India', 'lng': 78.45021486282349}, {'city': 'Keshava Giri, Hyderabad', 'type': '16', 'area': 'Telangana', 'country': 'India', 'PLZ': '500005', 'phone': '', 'street': '', 'POI': '', 'lat': 17.32169602147431, 'house_no': '', 'formatted_address': 'Keshava Giri, Hyderabad 500005, Telangana, India', 'lng': 78.47351789474487}, {'city': 'Badangipet, Hyderabad', 'type': '18', 'area': 'Telangana', 'country': 'India', 'PLZ': '500005', 'phone': '', 'street': '', 'POI': '', 'lat': 17.29591443690011, 'house_no': '', 'formatted_address': 'Badangipet, Hyderabad 500005, Telangana, India', 'lng': 78.52518796920776}, {'city': 'Udamgadda, Hyderabad', 'type': '18', 'area': 'Telangana', 'country': 'India', 'PLZ': '500005', 'phone': '', 'street': '', 'POI': '', 'lat': 17.31898180166965, 'house_no': '', 'formatted_address': 'Udamgadda, Hyderabad 500005, Telangana, India', 'lng': 78.45876038074493}, {'city': 'Falaknama Palace Area, Hyderabad', 'type': '18', 'area': 'Telangana', 'country': 'India', 'PLZ': '500005', 'phone': '', 'street': '', 'POI': '', 'lat': 17.32416439032855, 'house_no': '', 'formatted_address': 'Falaknama Palace Area, Hyderabad 500005, Telangana, India', 'lng': 78.47001492977142}, {'city': 'Chandrayanagutta, Hyderabad', 'type': '17', 'area': 'Telangana', 'country': 'India', 'PLZ': '500005', 'phone': '', 'street': '', 'POI': '', 'lat': 17.32475843265281, 'house_no': '', 'formatted_address': 'Chandrayanagutta, Hyderabad 500005, Telangana, India', 'lng': 78.48202586174011}, {'city': 'Barkas, Hyderabad', 'type': '17', 'area': 'Telangana', 'country': 'India', 'PLZ': '500005', 'phone': '', 'street': '', 'POI': '', 'lat': 17.31791658746986, 'house_no': '', 'formatted_address': 'Barkas, Hyderabad 500005, Telangana, India', 'lng': 78.48291635513306}, {'city': 'Salala Barkas, Hyderabad', 'type': '17', 'area': 'Telangana', 'country': 'India', 'PLZ': '500005', 'phone': '', 'street': '', 'POI': '', 'lat': 17.31157638674979, 'house_no': '', 'formatted_address': 'Salala Barkas, Hyderabad 500005, Telangana, India', 'lng': 78.48588824272156}, {'city': 'Hafeez Baba Nagar North, Hyderabad', 'type': '18', 'area': 'Telangana', 'country': 'India', 'PLZ': '500005', 'phone': '', 'street': '', 'POI': '', 'lat': 17.32774909930701, 'house_no': '', 'formatted_address': 'Hafeez Baba Nagar North, Hyderabad 500005, Telangana, India', 'lng': 78.48708987236023}, {'city': 'Balapur, Hyderabad', 'type': '16', 'area': 'Telangana', 'country': 'India', 'PLZ': '500005', 'phone': '', 'street': '', 'POI': '', 'lat': 17.31070574437096, 'house_no': '', 'formatted_address': 'Balapur, Hyderabad 500005, Telangana, India', 'lng': 78.49981427192688}, {'city': 'Phool Bagh, Hyderabad', 'type': '18', 'area': 'Telangana', 'country': 'India', 'PLZ': '500005', 'phone': '', 'street': '', 'POI': '', 'lat': 17.3290651820432, 'house_no': '', 'formatted_address': 'Phool Bagh, Hyderabad 500005, Telangana, India', 'lng': 78.48302900791168}, {'city': 'Hafeez Baba Nagar South, Hyderabad', 'type': '17', 'area': 'Telangana', 'country': 'India', 'PLZ': '500005', 'phone': '', 'street': '', 'POI': '', 'lat': 17.3199445861139, 'house_no': '', 'formatted_address': 'Hafeez Baba Nagar South, Hyderabad 500005, Telangana, India', 'lng': 78.49491119384766}, {'city': 'Falaknuma, Hyderabad', 'type': '18', 'area': 'Telangana', 'country': 'India', 'PLZ': '500005', 'phone': '', 'street': '', 'POI': '', 'lat': 17.32669929892239, 'house_no': '', 'formatted_address': 'Falaknuma, Hyderabad 500005, Telangana, India', 'lng': 78.47650051116943}, {'city': 'Bandla Guda, Hyderabad', 'type': '17', 'area': 'Telangana', 'country': 'India', 'PLZ': '500005', 'phone': '', 'street': '', 'POI': '', 'lat': 17.3119348853543, 'house_no': '', 'formatted_address': 'Bandla Guda, Hyderabad 500005, Telangana, India', 'lng': 78.47314238548279}, {'city': 'Islamia Nagar, Hyderabad', 'type': '16', 'area': 'Telangana', 'country': 'India', 'PLZ': '500005', 'phone': '', 'street': '', 'POI': '', 'lat': 17.30446772720439, 'house_no': '', 'formatted_address': 'Islamia Nagar, Hyderabad 500005, Telangana, India', 'lng': 78.46666216850281}, {'city': 'Almas Guda, Hyderabad', 'type': '18', 'area': 'Telangana', 'country': 'India', 'PLZ': '500005', 'phone': '', 'street': '', 'POI': '', 'lat': 17.29418324352898, 'house_no': '', 'formatted_address': 'Almas Guda, Hyderabad 500005, Telangana, India', 'lng': 78.53321850299835}, {'city': 'Venkatapuram Village, Hyderabad', 'type': '17', 'area': 'Telangana', 'country': 'India', 'PLZ': '500005', 'phone': '', 'street': '', 'POI': '', 'lat': 17.29583248728529, 'house_no': '', 'formatted_address': 'Venkatapuram Village, Hyderabad 500005, Telangana, India', 'lng': 78.48747611045837}, {'city': 'Mallapur Village Near RCI, Hyderabad', 'type': '17', 'area': 'Telangana', 'country': 'India', 'PLZ': '500005', 'phone': '', 'street': '', 'POI': '', 'lat': 17.29399885510961, 'house_no': '', 'formatted_address': 'Mallapur Village Near RCI, Hyderabad 500005, Telangana, India', 'lng': 78.51203441619873}, {'city': 'Pahadi Sharif, Hyderabad', 'type': '17', 'area': 'Telangana', 'country': 'India', 'PLZ': '500005', 'phone': '', 'street': '', 'POI': '', 'lat': 17.25588795302128, 'house_no': '', 'formatted_address': 'Pahadi Sharif, Hyderabad 500005, Telangana, India', 'lng': 78.47920417785645}, {'city': 'Nadargul, Hyderabad', 'type': '18', 'area': 'Telangana', 'country': 'India', 'PLZ': '500005', 'phone': '', 'street': '', 'POI': '', 'lat': 17.25685106749582, 'house_no': '', 'formatted_address': 'Nadargul, Hyderabad 500005, Telangana, India', 'lng': 78.512082695961}, {'city': 'Sardar Nagar, Hyderabad', 'type': '18', 'area': 'Telangana', 'country': 'India', 'PLZ': '500005', 'phone': '', 'street': '', 'POI': '', 'lat': 17.23789523079592, 'house_no': '', 'formatted_address': 'Sardar Nagar, Hyderabad 500005, Telangana, India', 'lng': 78.4825086593628}, {'city': 'Kurmala Guda, Hyderabad', 'type': '16', 'area': 'Telangana', 'country': 'India', 'PLZ': '500005', 'phone': '', 'street': '', 'POI': '', 'lat': 17.27290564981848, 'house_no': '', 'formatted_address': 'Kurmala Guda, Hyderabad 500005, Telangana, India', 'lng': 78.51803183555603}, {'city': 'Raviryal, Hyderabad', 'type': '17', 'area': 'Telangana', 'country': 'India', 'PLZ': '500005', 'phone': '', 'street': '', 'POI': '', 'lat': 17.23242329213046, 'house_no': '', 'formatted_address': 'Raviryal, Hyderabad 500005, Telangana, India', 'lng': 78.50054383277893}, {'city': 'Udamgadda (Weaker Section Colony), Hyderabad', 'type': '18', 'area': 'Telangana', 'country': 'India', 'PLZ': '500005', 'phone': '', 'street': '', 'POI': '', 'lat': 17.31651336318554, 'house_no': '', 'formatted_address': 'Udamgadda (Weaker Section Colony), Hyderabad 500005, Telangana, India', 'lng': 78.4539270401001}, {'city': 'Udamgadda (Mahamood Nagar), Hyderabad', 'type': '18', 'area': 'Telangana', 'country': 'India', 'PLZ': '500005', 'phone': '', 'street': '', 'POI': '', 'lat': 17.32028258371169, 'house_no': '', 'formatted_address': 'Udamgadda (Mahamood Nagar), Hyderabad 500005, Telangana, India', 'lng': 78.46673727035522}, {'city': 'Udamgadda (Moghuls Colony), Hyderabad', 'type': '18', 'area': 'Telangana', 'country': 'India', 'PLZ': '500005', 'phone': '', 'street': '', 'POI': '', 'lat': 17.31570419978584, 'house_no': '', 'formatted_address': 'Udamgadda (Moghuls Colony), Hyderabad 500005, Telangana, India', 'lng': 78.46349716186523}, {'city': 'Udamgadda (Mughal Colony), Hyderabad', 'type': '18', 'area': 'Telangana', 'country': 'India', 'PLZ': '500005', 'phone': '', 'street': '', 'POI': '', 'lat': 17.31951440645378, 'house_no': '', 'formatted_address': 'Udamgadda (Mughal Colony), Hyderabad 500005, Telangana, India', 'lng': 78.45170617103577}, {'city': 'Udamgadda (Hosnabad Colony), Hyderabad', 'type': '18', 'area': 'Telangana', 'country': 'India', 'PLZ': '500005', 'phone': '', 'street': '', 'POI': '', 'lat': 17.3212351190509, 'house_no': '', 'formatted_address': 'Udamgadda (Hosnabad Colony), Hyderabad 500005, Telangana, India', 'lng': 78.46684455871582}, {'city': 'Pahadi Sharif (Dargah), Hyderabad', 'type': '18', 'area': 'Telangana', 'country': 'India', 'PLZ': '500005', 'phone': '', 'street': '', 'POI': '', 'lat': 17.26887932881716, 'house_no': '', 'formatted_address': 'Pahadi Sharif (Dargah), Hyderabad 500005, Telangana, India', 'lng': 78.47255229949951}, {'city': 'Balapur (Kottapet), Hyderabad', 'type': '18', 'area': 'Telangana', 'country': 'India', 'PLZ': '500005', 'phone': '', 'street': '', 'POI': '', 'lat': 17.30609639249386, 'house_no': '', 'formatted_address': 'Balapur (Kottapet), Hyderabad 500005, Telangana, India', 'lng': 78.49055528640747}, {'city': 'Mangal Hat (Sitarampet), Hyderabad', 'type': '18', 'area': 'Telangana', 'country': 'India', 'PLZ': '500006', 'phone': '', 'street': '', 'POI': '', 'lat': 17.38150109128452, 'house_no': '', 'formatted_address': 'Mangal Hat (Sitarampet), Hyderabad 500006, Telangana, India', 'lng': 78.46261739730835}, {'city': 'Shivlal Nagar, Hyderabad', 'type': '17', 'area': 'Telangana', 'country': 'India', 'PLZ': '500006', 'phone': '', 'street': '', 'POI': '', 'lat': 17.37448729440637, 'house_no': '', 'formatted_address': 'Shivlal Nagar, Hyderabad 500006, Telangana, India', 'lng': 78.45460295677185}, {'city': 'Rahimpura (Jali Hanuman), Hyderabad', 'type': '18', 'area': 'Telangana', 'country': 'India', 'PLZ': '500006', 'phone': '', 'street': '', 'POI': '', 'lat': 17.37369886540388, 'house_no': '', 'formatted_address': 'Rahimpura (Jali Hanuman), Hyderabad 500006, Telangana, India', 'lng': 78.45893740653992}, {'city': 'Karwan (Sabji Mandi), Hyderabad', 'type': '18', 'area': 'Telangana', 'country': 'India', 'PLZ': '500006', 'phone': '', 'street': '', 'POI': '', 'lat': 17.37136427650324, 'house_no': '', 'formatted_address': 'Karwan (Sabji Mandi), Hyderabad 500006, Telangana, India', 'lng': 78.44797253608704}, {'city': 'Mangal Hat, Hyderabad', 'type': '17', 'area': 'Telangana', 'country': 'India', 'PLZ': '500006', 'phone': '', 'street': '', 'POI': '', 'lat': 17.37884919091813, 'house_no': '', 'formatted_address': 'Mangal Hat, Hyderabad 500006, Telangana, India', 'lng': 78.46116900444031}, {'city': 'Mustaidpura (Kagjiguda), Hyderabad', 'type': '18', 'area': 'Telangana', 'country': 'India', 'PLZ': '500006', 'phone': '', 'street': '', 'POI': '', 'lat': 17.3708420617552, 'house_no': '', 'formatted_address': 'Mustaidpura (Kagjiguda), Hyderabad 500006, Telangana, India', 'lng': 78.45508575439453}, {'city': 'Jiya Guda (Bada Banda), Hyderabad', 'type': '18', 'area': 'Telangana', 'country': 'India', 'PLZ': '500006', 'phone': '', 'street': '', 'POI': '', 'lat': 17.37094445692118, 'house_no': '', 'formatted_address': 'Jiya Guda (Bada Banda), Hyderabad 500006, Telangana, India', 'lng': 78.45375537872314}, {'city': 'Tappachabutra (Natraj Nagar), Hyderabad', 'type': '18', 'area': 'Telangana', 'country': 'India', 'PLZ': '500006', 'phone': '', 'street': '', 'POI': '', 'lat': 17.37796862863262, 'house_no': '', 'formatted_address': 'Tappachabutra (Natraj Nagar), Hyderabad 500006, Telangana, India', 'lng': 78.45018267631531}, {'city': 'Mangal Hat (Bara Bangala), Hyderabad', 'type': '18', 'area': 'Telangana', 'country': 'India', 'PLZ': '500006', 'phone': '', 'street': '', 'POI': '', 'lat': 17.37673992999352, 'house_no': '', 'formatted_address': 'Mangal Hat (Bara Bangala), Hyderabad 500006, Telangana, India', 'lng': 78.45889449119568}, {'city': 'Sitaram Bagh, Hyderabad', 'type': '18', 'area': 'Telangana', 'country': 'India', 'PLZ': '500006', 'phone': '', 'street': '', 'POI': '', 'lat': 17.380077875401, 'house_no': '', 'formatted_address': 'Sitaram Bagh, Hyderabad 500006, Telangana, India', 'lng': 78.45990836620331}, {'city': 'Mangal Hat (Ghode Ki Khabar), Hyderabad', 'type': '18', 'area': 'Telangana', 'country': 'India', 'PLZ': '500006', 'phone': '', 'street': '', 'POI': '', 'lat': 17.37683208267747, 'house_no': '', 'formatted_address': 'Mangal Hat (Ghode Ki Khabar), Hyderabad 500006, Telangana, India', 'lng': 78.46242427825928}, {'city': 'Dattatreya Nagar, Hyderabad', 'type': '18', 'area': 'Telangana', 'country': 'India', 'PLZ': '500006', 'phone': '', 'street': '', 'POI': '', 'lat': 17.37623820901161, 'house_no': '', 'formatted_address': 'Dattatreya Nagar, Hyderabad 500006, Telangana, India', 'lng': 78.45472633838654}, {'city': 'Rahimpura (Balaji Nagar), Hyderabad', 'type': '18', 'area': 'Telangana', 'country': 'India', 'PLZ': '500006', 'phone': '', 'street': '', 'POI': '', 'lat': 17.37319713608944, 'house_no': '', 'formatted_address': 'Rahimpura (Balaji Nagar), Hyderabad 500006, Telangana, India', 'lng': 78.45508575439453}, {'city': 'Jiya Guda (Bheem Nagar), Hyderabad', 'type': '18', 'area': 'Telangana', 'country': 'India', 'PLZ': '500006', 'phone': '', 'street': '', 'POI': '', 'lat': 17.3699512213957, 'house_no': '', 'formatted_address': 'Jiya Guda (Bheem Nagar), Hyderabad 500006, Telangana, India', 'lng': 78.45442056655884}, {'city': 'Rahimpura, Hyderabad', 'type': '18', 'area': 'Telangana', 'country': 'India', 'PLZ': '500006', 'phone': '', 'street': '', 'POI': '', 'lat': 17.37019697089314, 'house_no': '', 'formatted_address': 'Rahimpura, Hyderabad 500006, Telangana, India', 'lng': 78.45743000507355}, {'city': 'Rahimpura (Jhanda), Hyderabad', 'type': '18', 'area': 'Telangana', 'country': 'India', 'PLZ': '500006', 'phone': '', 'street': '', 'POI': '', 'lat': 17.37256229294606, 'house_no': '', 'formatted_address': 'Rahimpura (Jhanda), Hyderabad 500006, Telangana, India', 'lng': 78.4572958946228}, {'city': 'Dhool Pet (Upper Dhoolpet), Hyderabad', 'type': '18', 'area': 'Telangana', 'country': 'India', 'PLZ': '500006', 'phone': '', 'street': '', 'POI': '', 'lat': 17.37595151069039, 'house_no': '', 'formatted_address': 'Dhool Pet (Upper Dhoolpet), Hyderabad 500006, Telangana, India', 'lng': 78.46158742904663}, {'city': 'Jiya Guda (Ekbalgunj), Hyderabad', 'type': '18', 'area': 'Telangana', 'country': 'India', 'PLZ': '500006', 'phone': '', 'street': '', 'POI': '', 'lat': 17.36950067979404, 'house_no': '', 'formatted_address': 'Jiya Guda (Ekbalgunj), Hyderabad 500006, Telangana, India', 'lng': 78.45625519752502}, {'city': 'Tappachabutra (Sultan Ali Bagh), Hyderabad', 'type': '18', 'area': 'Telangana', 'country': 'India', 'PLZ': '500006', 'phone': '', 'street': '', 'POI': '', 'lat': 17.3731356997524, 'house_no': '', 'formatted_address': 'Tappachabutra (Sultan Ali Bagh), Hyderabad 500006, Telangana, India', 'lng': 78.44891667366028}, {'city': 'Mangal Hat (Baba Balak Das Nagar), Hyderabad', 'type': '18', 'area': 'Telangana', 'country': 'India', 'PLZ': '500006', 'phone': '', 'street': '', 'POI': '', 'lat': 17.37668873403793, 'house_no': '', 'formatted_address': 'Mangal Hat (Baba Balak Das Nagar), Hyderabad 500006, Telangana, India', 'lng': 78.45766067504883}, {'city': 'Tappachabutra (Ambedkar Colony), Hyderabad', 'type': '18', 'area': 'Telangana', 'country': 'India', 'PLZ': '500006', 'phone': '', 'street': '', 'POI': '', 'lat': 17.37511189159589, 'house_no': '', 'formatted_address': 'Tappachabutra (Ambedkar Colony), Hyderabad 500006, Telangana, India', 'lng': 78.44960331916809}, {'city': 'Rahimpura (CIB Quaters), Hyderabad', 'type': '18', 'area': 'Telangana', 'country': 'India', 'PLZ': '500006', 'phone': '', 'street': '', 'POI': '', 'lat': 17.37194792651842, 'house_no': '', 'formatted_address': 'Rahimpura (CIB Quaters), Hyderabad 500006, Telangana, India', 'lng': 78.45681309700012}, {'city': 'Jiya Guda (Joshi Wadi), Hyderabad', 'type': '18', 'area': 'Telangana', 'country': 'India', 'PLZ': '500006', 'phone': '', 'street': '', 'POI': '', 'lat': 17.36964403406024, 'house_no': '', 'formatted_address': 'Jiya Guda (Joshi Wadi), Hyderabad 500006, Telangana, India', 'lng': 78.44914197921753}, {'city': 'Dhool Pet, Hyderabad', 'type': '18', 'area': 'Telangana', 'country': 'India', 'PLZ': '500006', 'phone': '', 'street': '', 'POI': '', 'lat': 17.37365278827927, 'house_no': '', 'formatted_address': 'Dhool Pet, Hyderabad 500006, Telangana, India', 'lng': 78.46036434173584}, {'city': 'Mangal Hat (Kimti Pura), Hyderabad', 'type': '18', 'area': 'Telangana', 'country': 'India', 'PLZ': '500006', 'phone': '', 'street': '', 'POI': '', 'lat': 17.37825532379522, 'house_no': '', 'formatted_address': 'Mangal Hat (Kimti Pura), Hyderabad 500006, Telangana, India', 'lng': 78.4630036354065}, {'city': 'Dhool Pet (Jinsi Chowraha), Hyderabad', 'type': '18', 'area': 'Telangana', 'country': 'India', 'PLZ': '500006', 'phone': '', 'street': '', 'POI': '', 'lat': 17.37453849097747, 'house_no': '', 'formatted_address': 'Dhool Pet (Jinsi Chowraha), Hyderabad 500006, Telangana, India', 'lng': 78.4622472524643}, {'city': 'Mustaidpura (Kumar Wadi), Hyderabad', 'type': '18', 'area': 'Telangana', 'country': 'India', 'PLZ': '500006', 'phone': '', 'street': '', 'POI': '', 'lat': 17.37392413117956, 'house_no': '', 'formatted_address': 'Mustaidpura (Kumar Wadi), Hyderabad 500006, Telangana, India', 'lng': 78.45141649246216}, {'city': 'Mustaidpura (Darzi Gali), Hyderabad', 'type': '18', 'area': 'Telangana', 'country': 'India', 'PLZ': '500006', 'phone': '', 'street': '', 'POI': '', 'lat': 17.37279779953022, 'house_no': '', 'formatted_address': 'Mustaidpura (Darzi Gali), Hyderabad 500006, Telangana, India', 'lng': 78.45069766044617}, {'city': 'Mustaidpura (Laxmi Nagar), Hyderabad', 'type': '18', 'area': 'Telangana', 'country': 'India', 'PLZ': '500006', 'phone': '', 'street': '', 'POI': '', 'lat': 17.37414939667811, 'house_no': '', 'formatted_address': 'Mustaidpura (Laxmi Nagar), Hyderabad 500006, Telangana, India', 'lng': 78.45211386680603}, {'city': 'Mustaidpura (Sathanna Gali), Hyderabad', 'type': '18', 'area': 'Telangana', 'country': 'India', 'PLZ': '500006', 'phone': '', 'street': '', 'POI': '', 'lat': 17.37196840543254, 'house_no': '', 'formatted_address': 'Mustaidpura (Sathanna Gali), Hyderabad 500006, Telangana, India', 'lng': 78.4535300731659}, {'city': 'Tarnaka, Secunderabad', 'type': '18', 'area': 'Telangana', 'country': 'India', 'PLZ': '500007', 'phone': '', 'street': '', 'POI': '', 'lat': 17.42563064561346, 'house_no': '', 'formatted_address': 'Tarnaka, Secunderabad 500007, Telangana, India', 'lng': 78.53154480457306}, {'city': 'Osmania University Area, Hyderabad', 'type': '17', 'area': 'Telangana', 'country': 'India', 'PLZ': '500007', 'phone': '', 'street': '', 'POI': '', 'lat': 17.41374061972618, 'house_no': '', 'formatted_address': 'Osmania University Area, Hyderabad 500007, Telangana, India', 'lng': 78.52828860282898}, {'city': 'Osmania University Area (Manikeshwari Nagar), Hyderabad', 'type': '18', 'area': 'Telangana', 'country': 'India', 'PLZ': '500007', 'phone': '', 'street': '', 'POI': '', 'lat': 17.42146948053491, 'house_no': '', 'formatted_address': 'Osmania University Area (Manikeshwari Nagar), Hyderabad 500007, Telangana, India', 'lng': 78.52122902870178}, {'city': 'Habsiguda (P&T Colony), Hyderabad', 'type': '18', 'area': 'Telangana', 'country': 'India', 'PLZ': '500007', 'phone': '', 'street': '', 'POI': '', 'lat': 17.41642272503682, 'house_no': '', 'formatted_address': 'Habsiguda (P&T Colony), Hyderabad 500007, Telangana, India', 'lng': 78.53775143623352}, {'city': 'Kakateeya Nagar (Block B), Hyderabad', 'type': '18', 'area': 'Telangana', 'country': 'India', 'PLZ': '500007', 'phone': '', 'street': '', 'POI': '', 'lat': 17.41666841210385, 'house_no': '', 'formatted_address': 'Kakateeya Nagar (Block B), Hyderabad 500007, Telangana, India', 'lng': 78.54018688201904}, {'city': 'Kakateeya Nagar (Block A), Hyderabad', 'type': '18', 'area': 'Telangana', 'country': 'India', 'PLZ': '500007', 'phone': '', 'street': '', 'POI': '', 'lat': 17.41564471381096, 'house_no': '', 'formatted_address': 'Kakateeya Nagar (Block A), Hyderabad 500007, Telangana, India', 'lng': 78.54090571403503}, {'city': 'Habsiguda, Hyderabad', 'type': '16', 'area': 'Telangana', 'country': 'India', 'PLZ': '500007', 'phone': '', 'street': '', 'POI': '', 'lat': 17.41582897992711, 'house_no': '', 'formatted_address': 'Habsiguda, Hyderabad 500007, Telangana, India', 'lng': 78.5447895526886}, {'city': 'Habsiguda (Vikrampuri), Hyderabad', 'type': '18', 'area': 'Telangana', 'country': 'India', 'PLZ': '500007', 'phone': '', 'street': '', 'POI': '', 'lat': 17.4153171291455, 'house_no': '', 'formatted_address': 'Habsiguda (Vikrampuri), Hyderabad 500007, Telangana, India', 'lng': 78.5441780090332}, {'city': 'Kakateeya Nagar (Block D), Hyderabad', 'type': '18', 'area': 'Telangana', 'country': 'India', 'PLZ': '500007', 'phone': '', 'street': '', 'POI': '', 'lat': 17.4143548457931, 'house_no': '', 'formatted_address': 'Kakateeya Nagar (Block D), Hyderabad 500007, Telangana, India', 'lng': 78.53942513465881}, {'city': 'Habsiguda (Nagendra Nagar), Hyderabad', 'type': '18', 'area': 'Telangana', 'country': 'India', 'PLZ': '500007', 'phone': '', 'street': '', 'POI': '', 'lat': 17.41882839667598, 'house_no': '', 'formatted_address': 'Habsiguda (Nagendra Nagar), Hyderabad 500007, Telangana, India', 'lng': 78.54270815849304}, {'city': 'Kakateeya Nagar (Block F), Hyderabad', 'type': '18', 'area': 'Telangana', 'country': 'India', 'PLZ': '500007', 'phone': '', 'street': '', 'POI': '', 'lat': 17.41676054466879, 'house_no': '', 'formatted_address': 'Kakateeya Nagar (Block F), Hyderabad 500007, Telangana, India', 'lng': 78.54269742965698}, {'city': 'Uppal, Hyderabad', 'type': '18', 'area': 'Telangana', 'country': 'India', 'PLZ': '500007', 'phone': '', 'street': '', 'POI': '', 'lat': 17.41205660599982, 'house_no': '', 'formatted_address': 'Uppal, Hyderabad 500007, Telangana, India', 'lng': 78.55133414268494}, {'city': 'Kakateeya Nagar (Block E), Hyderabad', 'type': '18', 'area': 'Telangana', 'country': 'India', 'PLZ': '500007', 'phone': '', 'street': '', 'POI': '', 'lat': 17.41576755790904, 'house_no': '', 'formatted_address': 'Kakateeya Nagar (Block E), Hyderabad 500007, Telangana, India', 'lng': 78.5427188873291}, {'city': 'Habsiguda (Sciencetist Colony), Hyderabad', 'type': '18', 'area': 'Telangana', 'country': 'India', 'PLZ': '500007', 'phone': '', 'street': '', 'POI': '', 'lat': 17.41808110632561, 'house_no': '', 'formatted_address': 'Habsiguda (Sciencetist Colony), Hyderabad 500007, Telangana, India', 'lng': 78.54392051696777}, {'city': 'Kakateeya Nagar (Block C), Hyderabad', 'type': '18', 'area': 'Telangana', 'country': 'India', 'PLZ': '500007', 'phone': '', 'street': '', 'POI': '', 'lat': 17.41538878834127, 'house_no': '', 'formatted_address': 'Kakateeya Nagar (Block C), Hyderabad 500007, Telangana, India', 'lng': 78.53965044021606}, {'city': 'Habsiguda (Sai Enclave), Hyderabad', 'type': '18', 'area': 'Telangana', 'country': 'India', 'PLZ': '500007', 'phone': '', 'street': '', 'POI': '', 'lat': 17.41749760351511, 'house_no': '', 'formatted_address': 'Habsiguda (Sai Enclave), Hyderabad 500007, Telangana, India', 'lng': 78.54470372200012}, {'city': 'Ramanthapur, Hyderabad', 'type': '17', 'area': 'Telangana', 'country': 'India', 'PLZ': '500007', 'phone': '', 'street': '', 'POI': '', 'lat': 17.39879381569418, 'house_no': '', 'formatted_address': 'Ramanthapur, Hyderabad 500007, Telangana, India', 'lng': 78.53623867034912}, {'city': 'Habsiguda (IICT Colony), Hyderabad', 'type': '18', 'area': 'Telangana', 'country': 'India', 'PLZ': '500007', 'phone': '', 'street': '', 'POI': '', 'lat': 17.42029225795206, 'house_no': '', 'formatted_address': 'Habsiguda (IICT Colony), Hyderabad 500007, Telangana, India', 'lng': 78.54379177093506}, {'city': 'Kakateeya Nagar, Hyderabad', 'type': '18', 'area': 'Telangana', 'country': 'India', 'PLZ': '500007', 'phone': '', 'street': '', 'POI': '', 'lat': 17.41586992792768, 'house_no': '', 'formatted_address': 'Kakateeya Nagar, Hyderabad 500007, Telangana, India', 'lng': 78.54020833969116}, {'city': 'Habsiguda (Madhuvan Enclave), Hyderabad', 'type': '18', 'area': 'Telangana', 'country': 'India', 'PLZ': '500007', 'phone': '', 'street': '', 'POI': '', 'lat': 17.41279880241243, 'house_no': '', 'formatted_address': 'Habsiguda (Madhuvan Enclave), Hyderabad 500007, Telangana, India', 'lng': 78.5428261756897}, {'city': 'Osmania University Area (University Lecturers Colony), Hyderabad', 'type': '18', 'area': 'Telangana', 'country': 'India', 'PLZ': '500007', 'phone': '', 'street': '', 'POI': '', 'lat': 17.42256480255661, 'house_no': '', 'formatted_address': 'Osmania University Area (University Lecturers Colony), Hyderabad 500007, Telangana, India', 'lng': 78.53615283966064}, {'city': 'Uppal (NGRI Colony), Hyderabad', 'type': '18', 'area': 'Telangana', 'country': 'India', 'PLZ': '500007', 'phone': '', 'street': '', 'POI': '', 'lat': 17.40940002999272, 'house_no': '', 'formatted_address': 'Uppal (NGRI Colony), Hyderabad 500007, Telangana, India', 'lng': 78.55474591255188}, {'city': 'Kaktiya Nagar (Salarjung Colony), Hyderabad', 'type': '18', 'area': 'Telangana', 'country': 'India', 'PLZ': '500008', 'phone': '', 'street': '', 'POI': '', 'lat': 17.39554835497235, 'house_no': '', 'formatted_address': 'Kaktiya Nagar (Salarjung Colony), Hyderabad 500008, Telangana, India', 'lng': 78.42119336128235}, {'city': 'Mehdipatnam (Padmanabha Nagar), Hyderabad', 'type': '18', 'area': 'Telangana', 'country': 'India', 'PLZ': '500008', 'phone': '', 'street': '', 'POI': '', 'lat': 17.38892416019373, 'house_no': '', 'formatted_address': 'Mehdipatnam (Padmanabha Nagar), Hyderabad 500008, Telangana, India', 'lng': 78.42902541160583}, {'city': 'Tolichowki (Minar Colony), Hyderabad', 'type': '18', 'area': 'Telangana', 'country': 'India', 'PLZ': '500008', 'phone': '', 'street': '', 'POI': '', 'lat': 17.39598859434599, 'house_no': '', 'formatted_address': 'Tolichowki (Minar Colony), Hyderabad 500008, Telangana, India', 'lng': 78.41793179512024}, {'city': 'Tolichowki (Shah Hatim Nagar), Hyderabad', 'type': '18', 'area': 'Telangana', 'country': 'India', 'PLZ': '500008', 'phone': '', 'street': '', 'POI': '', 'lat': 17.39288641990473, 'house_no': '', 'formatted_address': 'Tolichowki (Shah Hatim Nagar), Hyderabad 500008, Telangana, India', 'lng': 78.41695547103882}, {'city': 'Mehdipatnam (P&T Colony), Hyderabad', 'type': '18', 'area': 'Telangana', 'country': 'India', 'PLZ': '500008', 'phone': '', 'street': '', 'POI': '', 'lat': 17.39533335396285, 'house_no': '', 'formatted_address': 'Mehdipatnam (P&T Colony), Hyderabad 500008, Telangana, India', 'lng': 78.4305489063263}, {'city': 'Tolichowki (Al Karim Colony), Hyderabad', 'type': '18', 'area': 'Telangana', 'country': 'India', 'PLZ': '500008', 'phone': '', 'street': '', 'POI': '', 'lat': 17.39466787304578, 'house_no': '', 'formatted_address': 'Tolichowki (Al Karim Colony), Hyderabad 500008, Telangana, India', 'lng': 78.41807126998901}, {'city': 'Kaktiya Nagar, Hyderabad', 'type': '17', 'area': 'Telangana', 'country': 'India', 'PLZ': '500008', 'phone': '', 'street': '', 'POI': '', 'lat': 17.395046685557, 'house_no': '', 'formatted_address': 'Kaktiya Nagar, Hyderabad 500008, Telangana, India', 'lng': 78.42350006103516}, {'city': 'Tolichowki (Akbarpura), Hyderabad', 'type': '18', 'area': 'Telangana', 'country': 'India', 'PLZ': '500008', 'phone': '', 'street': '', 'POI': '', 'lat': 17.39664383238143, 'house_no': '', 'formatted_address': 'Tolichowki (Akbarpura), Hyderabad 500008, Telangana, India', 'lng': 78.41709494590759}, {'city': 'Tolichowki (Mohammedi Colony), Hyderabad', 'type': '18', 'area': 'Telangana', 'country': 'India', 'PLZ': '500008', 'phone': '', 'street': '', 'POI': '', 'lat': 17.39381810158536, 'house_no': '', 'formatted_address': 'Tolichowki (Mohammedi Colony), Hyderabad 500008, Telangana, India', 'lng': 78.41800689697266}, {'city': 'Mehdipatnam (Karol Bagh), Hyderabad', 'type': '18', 'area': 'Telangana', 'country': 'India', 'PLZ': '500008', 'phone': '', 'street': '', 'POI': '', 'lat': 17.39023468453186, 'house_no': '', 'formatted_address': 'Mehdipatnam (Karol Bagh), Hyderabad 500008, Telangana, India', 'lng': 78.4287679195404}, {'city': 'Tolichowki (Dargah Nagar), Hyderabad', 'type': '18', 'area': 'Telangana', 'country': 'India', 'PLZ': '500008', 'phone': '', 'street': '', 'POI': '', 'lat': 17.39056231414954, 'house_no': '', 'formatted_address': 'Tolichowki (Dargah Nagar), Hyderabad 500008, Telangana, India', 'lng': 78.41629028320312}, {'city': 'Tolichowki (II Lancer MD Lane), Hyderabad', 'type': '18', 'area': 'Telangana', 'country': 'India', 'PLZ': '500008', 'phone': '', 'street': '', 'POI': '', 'lat': 17.39252807953314, 'house_no': '', 'formatted_address': 'Tolichowki (II Lancer MD Lane), Hyderabad 500008, Telangana, India', 'lng': 78.4178352355957}, {'city': 'Tolichowki (Neeraj Colony), Hyderabad', 'type': '18', 'area': 'Telangana', 'country': 'India', 'PLZ': '500008', 'phone': '', 'street': '', 'POI': '', 'lat': 17.39721716373653, 'house_no': '', 'formatted_address': 'Tolichowki (Neeraj Colony), Hyderabad 500008, Telangana, India', 'lng': 78.41450929641724}, {'city': 'Tolichowki (Owasi Colony), Hyderabad', 'type': '18', 'area': 'Telangana', 'country': 'India', 'PLZ': '500008', 'phone': '', 'street': '', 'POI': '', 'lat': 17.39788263537672, 'house_no': '', 'formatted_address': 'Tolichowki (Owasi Colony), Hyderabad 500008, Telangana, India', 'lng': 78.4177815914154}, {'city': 'Mehdipatnam (Laxmi Nagar), Hyderabad', 'type': '18', 'area': 'Telangana', 'country': 'India', 'PLZ': '500008', 'phone': '', 'street': '', 'POI': '', 'lat': 17.38832008722081, 'house_no': '', 'formatted_address': 'Mehdipatnam (Laxmi Nagar), Hyderabad 500008, Telangana, India', 'lng': 78.42877864837646}, {'city': 'Khadar Bagh (Bahadur Varjung Colony), Hyderabad', 'type': '18', 'area': 'Telangana', 'country': 'India', 'PLZ': '500008', 'phone': '', 'street': '', 'POI': '', 'lat': 17.38919036120968, 'house_no': '', 'formatted_address': 'Khadar Bagh (Bahadur Varjung Colony), Hyderabad 500008, Telangana, India', 'lng': 78.42665433883667}, {'city': 'Tolichowki (Surya Nagar), Hyderabad', 'type': '18', 'area': 'Telangana', 'country': 'India', 'PLZ': '500008', 'phone': '', 'street': '', 'POI': '', 'lat': 17.40080044397764, 'house_no': '', 'formatted_address': 'Tolichowki (Surya Nagar), Hyderabad 500008, Telangana, India', 'lng': 78.41265320777893}, {'city': 'Tolichowki (Virasat Nagar), Hyderabad', 'type': '18', 'area': 'Telangana', 'country': 'India', 'PLZ': '500008', 'phone': '', 'street': '', 'POI': '', 'lat': 17.39628549937169, 'house_no': '', 'formatted_address': 'Tolichowki (Virasat Nagar), Hyderabad 500008, Telangana, India', 'lng': 78.41591477394104}, {'city': 'Langar House, Hyderabad', 'type': '17', 'area': 'Telangana', 'country': 'India', 'PLZ': '500008', 'phone': '', 'street': '', 'POI': '', 'lat': 17.38293453494538, 'house_no': '', 'formatted_address': 'Langar House, Hyderabad 500008, Telangana, India', 'lng': 78.42218041419983}, {'city': 'Tolichowki (Balmiki Nagar), Hyderabad', 'type': '18', 'area': 'Telangana', 'country': 'India', 'PLZ': '500008', 'phone': '', 'street': '', 'POI': '', 'lat': 17.394258345124, 'house_no': '', 'formatted_address': 'Tolichowki (Balmiki Nagar), Hyderabad 500008, Telangana, India', 'lng': 78.4172773361206}, {'city': 'Langar House (MD Lines Army Area), Hyderabad', 'type': '19', 'area': 'Telangana', 'country': 'India', 'PLZ': '500008', 'phone': '', 'street': '', 'POI': '', 'lat': 17.38957942353628, 'house_no': '', 'formatted_address': 'Langar House (MD Lines Army Area), Hyderabad 500008, Telangana, India', 'lng': 78.41725587844849}, {'city': 'Mehdipatnam (Saptagiri), Hyderabad', 'type': '18', 'area': 'Telangana', 'country': 'India', 'PLZ': '500008', 'phone': '', 'street': '', 'POI': '', 'lat': 17.39328571263469, 'house_no': '', 'formatted_address': 'Mehdipatnam (Saptagiri), Hyderabad 500008, Telangana, India', 'lng': 78.4302270412445}, {'city': 'Khadar Bagh (Indira Nagar), Hyderabad', 'type': '18', 'area': 'Telangana', 'country': 'India', 'PLZ': '500008', 'phone': '', 'street': '', 'POI': '', 'lat': 17.39075684395741, 'house_no': '', 'formatted_address': 'Khadar Bagh (Indira Nagar), Hyderabad 500008, Telangana, India', 'lng': 78.42597842216492}, {'city': 'Mehdipatnam (Nandi Nagar), Hyderabad', 'type': '18', 'area': 'Telangana', 'country': 'India', 'PLZ': '500008', 'phone': '', 'street': '', 'POI': '', 'lat': 17.39477025488295, 'house_no': '', 'formatted_address': 'Mehdipatnam (Nandi Nagar), Hyderabad 500008, Telangana, India', 'lng': 78.42788815498352}, {'city': 'Tolichowki (Bal Reddy Colony), Hyderabad', 'type': '18', 'area': 'Telangana', 'country': 'India', 'PLZ': '500008', 'phone': '', 'street': '', 'POI': '', 'lat': 17.39766763711164, 'house_no': '', 'formatted_address': 'Tolichowki (Bal Reddy Colony), Hyderabad 500008, Telangana, India', 'lng': 78.41604351997375}, {'city': 'Chota Bazar, Hyderabad', 'type': '17', 'area': 'Telangana', 'country': 'India', 'PLZ': '500008', 'phone': '', 'street': '', 'POI': '', 'lat': 17.38665119728538, 'house_no': '', 'formatted_address': 'Chota Bazar, Hyderabad 500008, Telangana, India', 'lng': 78.408522605896}, {'city': 'Mehdipatnam, Hyderabad', 'type': '18', 'area': 'Telangana', 'country': 'India', 'PLZ': '500008', 'phone': '', 'street': '', 'POI': '', 'lat': 17.39535383026036, 'house_no': '', 'formatted_address': 'Mehdipatnam, Hyderabad 500008, Telangana, India', 'lng': 78.43607425689697}, {'city': 'Khadar Bagh (Nanal Nagar), Hyderabad', 'type': '18', 'area': 'Telangana', 'country': 'India', 'PLZ': '500008', 'phone': '', 'street': '', 'POI': '', 'lat': 17.38983538514201, 'house_no': '', 'formatted_address': 'Khadar Bagh (Nanal Nagar), Hyderabad 500008, Telangana, India', 'lng': 78.42745900154114}, {'city': 'Tolichowki (IAS Colony), Hyderabad', 'type': '18', 'area': 'Telangana', 'country': 'India', 'PLZ': '500008', 'phone': '', 'street': '', 'POI': '', 'lat': 17.40367725528773, 'house_no': '', 'formatted_address': 'Tolichowki (IAS Colony), Hyderabad 500008, Telangana, India', 'lng': 78.41696619987488}, {'city': 'Tolichowki (NSF Colony), Hyderabad', 'type': '18', 'area': 'Telangana', 'country': 'India', 'PLZ': '500008', 'phone': '', 'street': '', 'POI': '', 'lat': 17.40368749296955, 'house_no': '', 'formatted_address': 'Tolichowki (NSF Colony), Hyderabad 500008, Telangana, India', 'lng': 78.4205710887909}, {'city': 'Hasmathpet (Fatima Nagar), Secunderabad', 'type': '18', 'area': 'Telangana', 'country': 'India', 'PLZ': '500009', 'phone': '', 'street': '', 'POI': '', 'lat': 17.47253315420761, 'house_no': '', 'formatted_address': 'Hasmathpet (Fatima Nagar), Secunderabad 500009, Telangana, India', 'lng': 78.4882915019989}, {'city': 'Karkhana (Asbestos Staff Colony), Secunderabad', 'type': '18', 'area': 'Telangana', 'country': 'India', 'PLZ': '500009', 'phone': '', 'street': '', 'POI': '', 'lat': 17.45794937916792, 'house_no': '', 'formatted_address': 'Karkhana (Asbestos Staff Colony), Secunderabad 500009, Telangana, India', 'lng': 78.49942803382874}, {'city': 'Hasmathpet, Secunderabad', 'type': '17', 'area': 'Telangana', 'country': 'India', 'PLZ': '500009', 'phone': '', 'street': '', 'POI': '', 'lat': 17.48590826310537, 'house_no': '', 'formatted_address': 'Hasmathpet, Secunderabad 500009, Telangana, India', 'lng': 78.49040508270264}, {'city': 'Karkhana, Secunderabad', 'type': '17', 'area': 'Telangana', 'country': 'India', 'PLZ': '500009', 'phone': '', 'street': '', 'POI': '', 'lat': 17.46156217050515, 'house_no': '', 'formatted_address': 'Karkhana, Secunderabad 500009, Telangana, India', 'lng': 78.49777579307556}, {'city': 'Sikh Road (Jawahar Rail Colony), Secunderabad', 'type': '18', 'area': 'Telangana', 'country': 'India', 'PLZ': '500009', 'phone': '', 'street': '', 'POI': '', 'lat': 17.4688898784544, 'house_no': '', 'formatted_address': 'Sikh Road (Jawahar Rail Colony), Secunderabad 500009, Telangana, India', 'lng': 78.49281907081604}, {'city': 'Tar Bund (Chitta Reddy Colony), Secunderabad', 'type': '18', 'area': 'Telangana', 'country': 'India', 'PLZ': '500009', 'phone': '', 'street': '', 'POI': '', 'lat': 17.45597408335476, 'house_no': '', 'formatted_address': 'Tar Bund (Chitta Reddy Colony), Secunderabad 500009, Telangana, India', 'lng': 78.48528742790222}, {'city': 'Sikh Village (Sita Ram Nagar), Secunderabad', 'type': '18', 'area': 'Telangana', 'country': 'India', 'PLZ': '500009', 'phone': '', 'street': '', 'POI': '', 'lat': 17.46136771613875, 'house_no': '', 'formatted_address': 'Sikh Village (Sita Ram Nagar), Secunderabad 500009, Telangana, India', 'lng': 78.49271178245544}, {'city': 'Sikh Road (Vahini Nagar), Secunderabad', 'type': '18', 'area': 'Telangana', 'country': 'India', 'PLZ': '500009', 'phone': '', 'street': '', 'POI': '', 'lat': 17.46536934048673, 'house_no': '', 'formatted_address': 'Sikh Road (Vahini Nagar), Secunderabad 500009, Telangana, India', 'lng': 78.49360227584839}, {'city': 'Sikh Village (Wahab Nagar Phase 1), Secunderabad', 'type': '18', 'area': 'Telangana', 'country': 'India', 'PLZ': '500009', 'phone': '', 'street': '', 'POI': '', 'lat': 17.46031356517095, 'house_no': '', 'formatted_address': 'Sikh Village (Wahab Nagar Phase 1), Secunderabad 500009, Telangana, India', 'lng': 78.49124193191528}, {'city': 'Karkhana (Water Supply Area), Secunderabad', 'type': '18', 'area': 'Telangana', 'country': 'India', 'PLZ': '500009', 'phone': '', 'street': '', 'POI': '', 'lat': 17.46269818923355, 'house_no': '', 'formatted_address': 'Karkhana (Water Supply Area), Secunderabad 500009, Telangana, India', 'lng': 78.49878430366516}, {'city': 'Manovikas Nagar (BHEL Enclave), Secunderabad', 'type': '18', 'area': 'Telangana', 'country': 'India', 'PLZ': '500009', 'phone': '', 'street': '', 'POI': '', 'lat': 17.46573777206762, 'house_no': '', 'formatted_address': 'Manovikas Nagar (BHEL Enclave), Secunderabad 500009, Telangana, India', 'lng': 78.48604917526245}, {'city': 'Hasmathpet (Krishi Nagar), Secunderabad', 'type': '18', 'area': 'Telangana', 'country': 'India', 'PLZ': '500009', 'phone': '', 'street': '', 'POI': '', 'lat': 17.47115158350156, 'house_no': '', 'formatted_address': 'Hasmathpet (Krishi Nagar), Secunderabad 500009, Telangana, India', 'lng': 78.48805546760559}, {'city': 'Old Mud Fort, Secunderabad', 'type': '17', 'area': 'Telangana', 'country': 'India', 'PLZ': '500009', 'phone': '', 'street': '', 'POI': '', 'lat': 17.45781632882727, 'house_no': '', 'formatted_address': 'Old Mud Fort, Secunderabad 500009, Telangana, India', 'lng': 78.49214315414429}, {'city': 'Hasmathpet (Park View Enclave), Secunderabad', 'type': '18', 'area': 'Telangana', 'country': 'India', 'PLZ': '500009', 'phone': '', 'street': '', 'POI': '', 'lat': 17.46853168729498, 'house_no': '', 'formatted_address': 'Hasmathpet (Park View Enclave), Secunderabad 500009, Telangana, India', 'lng': 78.4854805469513}, {'city': 'Manovikas Nagar, Secunderabad', 'type': '17', 'area': 'Telangana', 'country': 'India', 'PLZ': '500009', 'phone': '', 'street': '', 'POI': '', 'lat': 17.46904338873556, 'house_no': '', 'formatted_address': 'Manovikas Nagar, Secunderabad 500009, Telangana, India', 'lng': 78.48917126655579}, {'city': 'Old Race Course (Ombir Colony), Secunderabad', 'type': '18', 'area': 'Telangana', 'country': 'India', 'PLZ': '500009', 'phone': '', 'street': '', 'POI': '', 'lat': 17.45301621694142, 'house_no': '', 'formatted_address': 'Old Race Course (Ombir Colony), Secunderabad 500009, Telangana, India', 'lng': 78.49160671234131}, {'city': 'Karkhana (Venkat Ram Nagar), Secunderabad', 'type': '18', 'area': 'Telangana', 'country': 'India', 'PLZ': '500009', 'phone': '', 'street': '', 'POI': '', 'lat': 17.4613881850292, 'house_no': '', 'formatted_address': 'Karkhana (Venkat Ram Nagar), Secunderabad 500009, Telangana, India', 'lng': 78.49612355232239}, {'city': 'Karkhana (Balaji Enclave), Secunderabad', 'type': '18', 'area': 'Telangana', 'country': 'India', 'PLZ': '500009', 'phone': '', 'street': '', 'POI': '', 'lat': 17.46257537673964, 'house_no': '', 'formatted_address': 'Karkhana (Balaji Enclave), Secunderabad 500009, Telangana, India', 'lng': 78.49450349807739}, {'city': 'Karkhana (Gunrock Enclave), Secunderabad', 'type': '18', 'area': 'Telangana', 'country': 'India', 'PLZ': '500009', 'phone': '', 'street': '', 'POI': '', 'lat': 17.45817454106151, 'house_no': '', 'formatted_address': 'Karkhana (Gunrock Enclave), Secunderabad 500009, Telangana, India', 'lng': 78.49496483802795}, {'city': 'Sikh Village (Bearers Lane), Secunderabad', 'type': '18', 'area': 'Telangana', 'country': 'India', 'PLZ': '500009', 'phone': '', 'street': '', 'POI': '', 'lat': 17.45796984844248, 'house_no': '', 'formatted_address': 'Sikh Village (Bearers Lane), Secunderabad 500009, Telangana, India', 'lng': 78.49052309989929}, {'city': 'Sikh Village (SBI Colony), Secunderabad', 'type': '18', 'area': 'Telangana', 'country': 'India', 'PLZ': '500009', 'phone': '', 'street': '', 'POI': '', 'lat': 17.45728412649301, 'house_no': '', 'formatted_address': 'Sikh Village (SBI Colony), Secunderabad 500009, Telangana, India', 'lng': 78.48741173744202}, {'city': 'Karkhana (AP Text Book Colony), Secunderabad', 'type': '18', 'area': 'Telangana', 'country': 'India', 'PLZ': '500009', 'phone': '', 'street': '', 'POI': '', 'lat': 17.45911612414687, 'house_no': '', 'formatted_address': 'Karkhana (AP Text Book Colony), Secunderabad 500009, Telangana, India', 'lng': 78.49683165550232}, {'city': 'Karkhana (Indra Prastha SBI Staff Colony), Secunderabad', 'type': '18', 'area': 'Telangana', 'country': 'India', 'PLZ': '500009', 'phone': '', 'street': '', 'POI': '', 'lat': 17.46271865797448, 'house_no': '', 'formatted_address': 'Karkhana (Indra Prastha SBI Staff Colony), Secunderabad 500009, Telangana, India', 'lng': 78.49305510520935}, {'city': 'Hasmathpet (Panchsheel Colony), Secunderabad', 'type': '18', 'area': 'Telangana', 'country': 'India', 'PLZ': '500009', 'phone': '', 'street': '', 'POI': '', 'lat': 17.47221590556556, 'house_no': '', 'formatted_address': 'Hasmathpet (Panchsheel Colony), Secunderabad 500009, Telangana, India', 'lng': 78.48477244377136}, {'city': 'Hasmathpet (Abrar Nagar), Secunderabad', 'type': '18', 'area': 'Telangana', 'country': 'India', 'PLZ': '500009', 'phone': '', 'street': '', 'POI': '', 'lat': 17.47266619379619, 'house_no': '', 'formatted_address': 'Hasmathpet (Abrar Nagar), Secunderabad 500009, Telangana, India', 'lng': 78.49054455757141}, {'city': 'Sikh Road (Jupiter Colony), Secunderabad', 'type': '18', 'area': 'Telangana', 'country': 'India', 'PLZ': '500009', 'phone': '', 'street': '', 'POI': '', 'lat': 17.4666383794605, 'house_no': '', 'formatted_address': 'Sikh Road (Jupiter Colony), Secunderabad 500009, Telangana, India', 'lng': 78.49269032478333}, {'city': 'Hasmathpet (ICRISAT Colony Phase 1), Secunderabad', 'type': '18', 'area': 'Telangana', 'country': 'India', 'PLZ': '500009', 'phone': '', 'street': '', 'POI': '', 'lat': 17.46499067391849, 'house_no': '', 'formatted_address': 'Hasmathpet (ICRISAT Colony Phase 1), Secunderabad 500009, Telangana, India', 'lng': 78.48387122154236}, {'city': 'Sikh Road (Kiran Enclave), Secunderabad', 'type': '18', 'area': 'Telangana', 'country': 'India', 'PLZ': '500009', 'phone': '', 'street': '', 'POI': '', 'lat': 17.46538980892745, 'house_no': '', 'formatted_address': 'Sikh Road (Kiran Enclave), Secunderabad 500009, Telangana, India', 'lng': 78.49195003509521}, {'city': 'Sikh Village (Defence Enclave), Secunderabad', 'type': '19', 'area': 'Telangana', 'country': 'India', 'PLZ': '500009', 'phone': '', 'street': '', 'POI': '', 'lat': 17.45933105003848, 'house_no': '', 'formatted_address': 'Sikh Village (Defence Enclave), Secunderabad 500009, Telangana, India', 'lng': 78.48850607872009}, {'city': 'Sikh Village (Mahara Colony), Secunderabad', 'type': '18', 'area': 'Telangana', 'country': 'India', 'PLZ': '500009', 'phone': '', 'street': '', 'POI': '', 'lat': 17.45559539725522, 'house_no': '', 'formatted_address': 'Sikh Village (Mahara Colony), Secunderabad 500009, Telangana, India', 'lng': 78.48927855491638}, {'city': 'Alwal, Hyderabad', 'type': '17', 'area': 'Telangana', 'country': 'India', 'PLZ': '500010', 'phone': '', 'street': '', 'POI': '', 'lat': 17.50484868160073, 'house_no': '', 'formatted_address': 'Alwal, Hyderabad 500010, Telangana, India', 'lng': 78.51104736328125}, {'city': 'Sainikpuri, Hyderabad', 'type': '18', 'area': 'Telangana', 'country': 'India', 'PLZ': '500010', 'phone': '', 'street': '', 'POI': '', 'lat': 17.50504820548638, 'house_no': '', 'formatted_address': 'Sainikpuri, Hyderabad 500010, Telangana, India', 'lng': 78.52821886539459}, {'city': 'Venkatapuram, Secunderabad', 'type': '17', 'area': 'Telangana', 'country': 'India', 'PLZ': '500010', 'phone': '', 'street': '', 'POI': '', 'lat': 17.49409453162461, 'house_no': '', 'formatted_address': 'Venkatapuram, Secunderabad 500010, Telangana, India', 'lng': 78.50423455238342}, {'city': 'Rudra Nagar Colony, Hyderabad', 'type': '17', 'area': 'Telangana', 'country': 'India', 'PLZ': '500010', 'phone': '', 'street': '', 'POI': '', 'lat': 17.49207869720723, 'house_no': '', 'formatted_address': 'Rudra Nagar Colony, Hyderabad 500010, Telangana, India', 'lng': 78.51498484611511}, {'city': 'Bolarum, Hyderabad', 'type': '16', 'area': 'Telangana', 'country': 'India', 'PLZ': '500010', 'phone': '', 'street': '', 'POI': '', 'lat': 17.5252501430277, 'house_no': '', 'formatted_address': 'Bolarum, Hyderabad 500010, Telangana, India', 'lng': 78.51513504981995}, {'city': 'Dulapalle, Hyderabad', 'type': '18', 'area': 'Telangana', 'country': 'India', 'PLZ': '500010', 'phone': '', 'street': '', 'POI': '', 'lat': 17.53114813219459, 'house_no': '', 'formatted_address': 'Dulapalle, Hyderabad 500010, Telangana, India', 'lng': 78.50388050079346}, {'city': 'Venkatapuram (BR Ambedkar Chowk), Secunderabad', 'type': '18', 'area': 'Telangana', 'country': 'India', 'PLZ': '500010', 'phone': '', 'street': '', 'POI': '', 'lat': 17.49457546343677, 'house_no': '', 'formatted_address': 'Venkatapuram (BR Ambedkar Chowk), Secunderabad 500010, Telangana, India', 'lng': 78.51260304450989}, {'city': 'Bolarum (Baban Guda), Hyderabad', 'type': '18', 'area': 'Telangana', 'country': 'India', 'PLZ': '500010', 'phone': '', 'street': '', 'POI': '', 'lat': 17.53266735766625, 'house_no': '', 'formatted_address': 'Bolarum (Baban Guda), Hyderabad 500010, Telangana, India', 'lng': 78.51580023765564}, {'city': 'Bolarum (Pensionpura), Hyderabad', 'type': '18', 'area': 'Telangana', 'country': 'India', 'PLZ': '500010', 'phone': '', 'street': '', 'POI': '', 'lat': 17.52965958580425, 'house_no': '', 'formatted_address': 'Bolarum (Pensionpura), Hyderabad 500010, Telangana, India', 'lng': 78.51821422576904}, {'city': 'Bolarum (Haig Lines), Hyderabad', 'type': '18', 'area': 'Telangana', 'country': 'India', 'PLZ': '500010', 'phone': '', 'street': '', 'POI': '', 'lat': 17.53124532208389, 'house_no': '', 'formatted_address': 'Bolarum (Haig Lines), Hyderabad 500010, Telangana, India', 'lng': 78.52299928665161}, {'city': 'Bolarum (Koukar), Hyderabad', 'type': '18', 'area': 'Telangana', 'country': 'India', 'PLZ': '500010', 'phone': '', 'street': '', 'POI': '', 'lat': 17.52567983822005, 'house_no': '', 'formatted_address': 'Bolarum (Koukar), Hyderabad 500010, Telangana, India', 'lng': 78.53494048118591}, {'city': 'Venkatapuram (Kottabasti), Secunderabad', 'type': '18', 'area': 'Telangana', 'country': 'India', 'PLZ': '500010', 'phone': '', 'street': '', 'POI': '', 'lat': 17.49664243248352, 'house_no': '', 'formatted_address': 'Venkatapuram (Kottabasti), Secunderabad 500010, Telangana, India', 'lng': 78.50513577461243}, {'city': 'Bolarum (Macha Bolaram), Hyderabad', 'type': '18', 'area': 'Telangana', 'country': 'India', 'PLZ': '500010', 'phone': '', 'street': '', 'POI': '', 'lat': 17.51566358334799, 'house_no': '', 'formatted_address': 'Bolarum (Macha Bolaram), Hyderabad 500010, Telangana, India', 'lng': 78.51437330245972}, {'city': 'Alwal (Maruthi Nagar), Hyderabad', 'type': '18', 'area': 'Telangana', 'country': 'India', 'PLZ': '500010', 'phone': '', 'street': '', 'POI': '', 'lat': 17.49633545836869, 'house_no': '', 'formatted_address': 'Alwal (Maruthi Nagar), Hyderabad 500010, Telangana, India', 'lng': 78.50951313972473}, {'city': 'Rudra Nagar Colony (Mundabada), Hyderabad', 'type': '18', 'area': 'Telangana', 'country': 'India', 'PLZ': '500010', 'phone': '', 'street': '', 'POI': '', 'lat': 17.49727684401119, 'house_no': '', 'formatted_address': 'Rudra Nagar Colony (Mundabada), Hyderabad 500010, Telangana, India', 'lng': 78.51613283157349}, {'city': 'Venkatapuram (Adarsh Nagar), Secunderabad', 'type': '18', 'area': 'Telangana', 'country': 'India', 'PLZ': '500010', 'phone': '', 'street': '', 'POI': '', 'lat': 17.49397174031973, 'house_no': '', 'formatted_address': 'Venkatapuram (Adarsh Nagar), Secunderabad 500010, Telangana, India', 'lng': 78.50573658943176}, {'city': 'Bolarum (Ambedkar Nagar), Hyderabad', 'type': '18', 'area': 'Telangana', 'country': 'India', 'PLZ': '500010', 'phone': '', 'street': '', 'POI': '', 'lat': 17.51458928417318, 'house_no': '', 'formatted_address': 'Bolarum (Ambedkar Nagar), Hyderabad 500010, Telangana, India', 'lng': 78.50029706954956}, {'city': 'Alwal (Bhimrao Nagar), Hyderabad', 'type': '18', 'area': 'Telangana', 'country': 'India', 'PLZ': '500010', 'phone': '', 'street': '', 'POI': '', 'lat': 17.50441893710275, 'house_no': '', 'formatted_address': 'Alwal (Bhimrao Nagar), Hyderabad 500010, Telangana, India', 'lng': 78.50507140159607}, {'city': 'Bolarum (Brindavan Colony), Hyderabad', 'type': '18', 'area': 'Telangana', 'country': 'India', 'PLZ': '500010', 'phone': '', 'street': '', 'POI': '', 'lat': 17.53459066862856, 'house_no': '', 'formatted_address': 'Bolarum (Brindavan Colony), Hyderabad 500010, Telangana, India', 'lng': 78.51449131965637}, {'city': 'Bolarum (Chandra Nagar Colony), Hyderabad', 'type': '18', 'area': 'Telangana', 'country': 'India', 'PLZ': '500010', 'phone': '', 'street': '', 'POI': '', 'lat': 17.51472229298724, 'house_no': '', 'formatted_address': 'Bolarum (Chandra Nagar Colony), Hyderabad 500010, Telangana, India', 'lng': 78.51107954978943}, {'city': 'Alwal (Dinakar Nagar), Hyderabad', 'type': '18', 'area': 'Telangana', 'country': 'India', 'PLZ': '500010', 'phone': '', 'street': '', 'POI': '', 'lat': 17.49952796381946, 'house_no': '', 'formatted_address': 'Alwal (Dinakar Nagar), Hyderabad 500010, Telangana, India', 'lng': 78.50088715553284}, {'city': 'Rudra Nagar Colony (Mallareddy Nagar), Hyderabad', 'type': '18', 'area': 'Telangana', 'country': 'India', 'PLZ': '500010', 'phone': '', 'street': '', 'POI': '', 'lat': 17.49818752765571, 'house_no': '', 'formatted_address': 'Rudra Nagar Colony (Mallareddy Nagar), Hyderabad 500010, Telangana, India', 'lng': 78.51606845855713}, {'city': 'Venkatapuram (Asif Nagar), Secunderabad', 'type': '18', 'area': 'Telangana', 'country': 'India', 'PLZ': '500010', 'phone': '', 'street': '', 'POI': '', 'lat': 17.49735870340185, 'house_no': '', 'formatted_address': 'Venkatapuram (Asif Nagar), Secunderabad 500010, Telangana, India', 'lng': 78.5039234161377}, {'city': 'Bolarum (Bajrang Colony), Hyderabad', 'type': '18', 'area': 'Telangana', 'country': 'India', 'PLZ': '500010', 'phone': '', 'street': '', 'POI': '', 'lat': 17.52508644935342, 'house_no': '', 'formatted_address': 'Bolarum (Bajrang Colony), Hyderabad 500010, Telangana, India', 'lng': 78.52105736732483}, {'city': 'Bolarum (Banjara Village Colony), Hyderabad', 'type': '18', 'area': 'Telangana', 'country': 'India', 'PLZ': '500010', 'phone': '', 'street': '', 'POI': '', 'lat': 17.53123509157168, 'house_no': '', 'formatted_address': 'Bolarum (Banjara Village Colony), Hyderabad 500010, Telangana, India', 'lng': 78.51985573768616}, {'city': 'Alwal (Bharathi Nagar), Hyderabad', 'type': '18', 'area': 'Telangana', 'country': 'India', 'PLZ': '500010', 'phone': '', 'street': '', 'POI': '', 'lat': 17.50410174408312, 'house_no': '', 'formatted_address': 'Alwal (Bharathi Nagar), Hyderabad 500010, Telangana, India', 'lng': 78.50695967674255}, {'city': 'Bolarum (Father Balaiah Nagar), Hyderabad', 'type': '18', 'area': 'Telangana', 'country': 'India', 'PLZ': '500010', 'phone': '', 'street': '', 'POI': '', 'lat': 17.51096731439984, 'house_no': '', 'formatted_address': 'Bolarum (Father Balaiah Nagar), Hyderabad 500010, Telangana, India', 'lng': 78.49553346633911}, {'city': 'Alwal (GV Reddy Colony), Hyderabad', 'type': '18', 'area': 'Telangana', 'country': 'India', 'PLZ': '500010', 'phone': '', 'street': '', 'POI': '', 'lat': 17.50551376036733, 'house_no': '', 'formatted_address': 'Alwal (GV Reddy Colony), Hyderabad 500010, Telangana, India', 'lng': 78.51616501808167}, {'city': 'Alwal (Golnaka), Hyderabad', 'type': '18', 'area': 'Telangana', 'country': 'India', 'PLZ': '500010', 'phone': '', 'street': '', 'POI': '', 'lat': 17.5005818876005, 'house_no': '', 'formatted_address': 'Alwal (Golnaka), Hyderabad 500010, Telangana, India', 'lng': 78.51316094398499}, {'city': 'Bolarum (Bhavana Colony), Hyderabad', 'type': '18', 'area': 'Telangana', 'country': 'India', 'PLZ': '500010', 'phone': '', 'street': '', 'POI': '', 'lat': 17.52752137751768, 'house_no': '', 'formatted_address': 'Bolarum (Bhavana Colony), Hyderabad 500010, Telangana, India', 'lng': 78.5178279876709}, {'city': 'Bowenpally, Secunderabad', 'type': '15', 'area': 'Telangana', 'country': 'India', 'PLZ': '500011', 'phone': '', 'street': '', 'POI': '', 'lat': 17.46897175062046, 'house_no': '', 'formatted_address': 'Bowenpally, Secunderabad 500011, Telangana, India', 'lng': 78.48007321357727}, {'city': 'Hasmathpet, Secunderabad', 'type': '18', 'area': 'Telangana', 'country': 'India', 'PLZ': '500011', 'phone': '', 'street': '', 'POI': '', 'lat': 17.47619170745995, 'house_no': '', 'formatted_address': 'Hasmathpet, Secunderabad 500011, Telangana, India', 'lng': 78.48611354827881}, {'city': 'New Bowenpally (Comsary Bazar), Secunderabad', 'type': '18', 'area': 'Telangana', 'country': 'India', 'PLZ': '500011', 'phone': '', 'street': '', 'POI': '', 'lat': 17.46632112054619, 'house_no': '', 'formatted_address': 'New Bowenpally (Comsary Bazar), Secunderabad 500011, Telangana, India', 'lng': 78.47392559051514}, {'city': 'Bowenpally (Sri Ganeshpuri), Secunderabad', 'type': '18', 'area': 'Telangana', 'country': 'India', 'PLZ': '500011', 'phone': '', 'street': '', 'POI': '', 'lat': 17.46958579069237, 'house_no': '', 'formatted_address': 'Bowenpally (Sri Ganeshpuri), Secunderabad 500011, Telangana, India', 'lng': 78.47789525985718}, {'city': 'New Bowenpally (Sancharpuri Colony Phase 1), Secunderabad', 'type': '18', 'area': 'Telangana', 'country': 'India', 'PLZ': '500011', 'phone': '', 'street': '', 'POI': '', 'lat': 17.46020098558085, 'house_no': '', 'formatted_address': 'New Bowenpally (Sancharpuri Colony Phase 1), Secunderabad 500011, Telangana, India', 'lng': 78.47259521484375}, {'city': 'New Bowenpally (Krishna Reddy Colony), Secunderabad', 'type': '18', 'area': 'Telangana', 'country': 'India', 'PLZ': '500011', 'phone': '', 'street': '', 'POI': '', 'lat': 17.46279029854963, 'house_no': '', 'formatted_address': 'New Bowenpally (Krishna Reddy Colony), Secunderabad 500011, Telangana, India', 'lng': 78.47486972808838}, {'city': 'Old Bowenpally (Nandamuri Nagar), Secunderabad', 'type': '18', 'area': 'Telangana', 'country': 'India', 'PLZ': '500011', 'phone': '', 'street': '', 'POI': '', 'lat': 17.47948178414571, 'house_no': '', 'formatted_address': 'Old Bowenpally (Nandamuri Nagar), Secunderabad 500011, Telangana, India', 'lng': 78.4724771976471}, {'city': 'New Bowenpally (Sancharpuri Colony Phase 2), Secunderabad', 'type': '18', 'area': 'Telangana', 'country': 'India', 'PLZ': '500011', 'phone': '', 'street': '', 'POI': '', 'lat': 17.46122443384117, 'house_no': '', 'formatted_address': 'New Bowenpally (Sancharpuri Colony Phase 2), Secunderabad 500011, Telangana, India', 'lng': 78.47249865531921}, {'city': 'New Bowenpally (Netaji Nagar), Secunderabad', 'type': '18', 'area': 'Telangana', 'country': 'India', 'PLZ': '500011', 'phone': '', 'street': '', 'POI': '', 'lat': 17.46590151919763, 'house_no': '', 'formatted_address': 'New Bowenpally (Netaji Nagar), Secunderabad 500011, Telangana, India', 'lng': 78.4733784198761}, {'city': 'Feroz Guda (Nagarjuna Colony), Secunderabad', 'type': '18', 'area': 'Telangana', 'country': 'India', 'PLZ': '500011', 'phone': '', 'street': '', 'POI': '', 'lat': 17.46114255819196, 'house_no': '', 'formatted_address': 'Feroz Guda (Nagarjuna Colony), Secunderabad 500011, Telangana, India', 'lng': 78.45618009567261}, {'city': 'Bowenpally (Panchwati Colony), Secunderabad', 'type': '18', 'area': 'Telangana', 'country': 'India', 'PLZ': '500011', 'phone': '', 'street': '', 'POI': '', 'lat': 17.46389560670914, 'house_no': '', 'formatted_address': 'Bowenpally (Panchwati Colony), Secunderabad 500011, Telangana, India', 'lng': 78.4826910495758}, {'city': 'Feroz Guda, Secunderabad', 'type': '18', 'area': 'Telangana', 'country': 'India', 'PLZ': '500011', 'phone': '', 'street': '', 'POI': '', 'lat': 17.46488321434354, 'house_no': '', 'formatted_address': 'Feroz Guda, Secunderabad 500011, Telangana, India', 'lng': 78.46163034439087}, {'city': 'Bowenpally (Sai Baba Colony), Secunderabad', 'type': '18', 'area': 'Telangana', 'country': 'India', 'PLZ': '500011', 'phone': '', 'street': '', 'POI': '', 'lat': 17.47150976950629, 'house_no': '', 'formatted_address': 'Bowenpally (Sai Baba Colony), Secunderabad 500011, Telangana, India', 'lng': 78.48001956939697}, {'city': 'New Bowenpally (Uma Nagar Colony), Secunderabad', 'type': '18', 'area': 'Telangana', 'country': 'India', 'PLZ': '500011', 'phone': '', 'street': '', 'POI': '', 'lat': 17.46106068250596, 'house_no': '', 'formatted_address': 'New Bowenpally (Uma Nagar Colony), Secunderabad 500011, Telangana, India', 'lng': 78.47088932991028}, {'city': 'New Bowenpally (Chinnathokatta), Secunderabad', 'type': '18', 'area': 'Telangana', 'country': 'India', 'PLZ': '500011', 'phone': '', 'street': '', 'POI': '', 'lat': 17.46135748169265, 'house_no': '', 'formatted_address': 'New Bowenpally (Chinnathokatta), Secunderabad 500011, Telangana, India', 'lng': 78.47551345825195}, {'city': 'Hasmathpet (Park View Enclave), Secunderabad', 'type': '18', 'area': 'Telangana', 'country': 'India', 'PLZ': '500011', 'phone': '', 'street': '', 'POI': '', 'lat': 17.46788182439245, 'house_no': '', 'formatted_address': 'Hasmathpet (Park View Enclave), Secunderabad 500011, Telangana, India', 'lng': 78.48413407802582}, {'city': 'New Bowenpally, Secunderabad', 'type': '17', 'area': 'Telangana', 'country': 'India', 'PLZ': '500011', 'phone': '', 'street': '', 'POI': '', 'lat': 17.4624935016977, 'house_no': '', 'formatted_address': 'New Bowenpally, Secunderabad 500011, Telangana, India', 'lng': 78.47188711166382}, {'city': 'Bowenpally (Bapuji Nagar), Secunderabad', 'type': '18', 'area': 'Telangana', 'country': 'India', 'PLZ': '500011', 'phone': '', 'street': '', 'POI': '', 'lat': 17.46736500263304, 'house_no': '', 'formatted_address': 'Bowenpally (Bapuji Nagar), Secunderabad 500011, Telangana, India', 'lng': 78.48153233528137}, {'city': 'Feroz Guda (Goutham Nagar), Secunderabad', 'type': '18', 'area': 'Telangana', 'country': 'India', 'PLZ': '500011', 'phone': '', 'street': '', 'POI': '', 'lat': 17.46030333066564, 'house_no': '', 'formatted_address': 'Feroz Guda (Goutham Nagar), Secunderabad 500011, Telangana, India', 'lng': 78.45844388008118}, {'city': 'New Bowenpally (Anand Nagar Colony), Secunderabad', 'type': '18', 'area': 'Telangana', 'country': 'India', 'PLZ': '500011', 'phone': '', 'street': '', 'POI': '', 'lat': 17.45893190175223, 'house_no': '', 'formatted_address': 'New Bowenpally (Anand Nagar Colony), Secunderabad 500011, Telangana, India', 'lng': 78.47813129425049}, {'city': 'Bowenpally (Prithivi Enclave), Secunderabad', 'type': '18', 'area': 'Telangana', 'country': 'India', 'PLZ': '500011', 'phone': '', 'street': '', 'POI': '', 'lat': 17.47273783045744, 'house_no': '', 'formatted_address': 'Bowenpally (Prithivi Enclave), Secunderabad 500011, Telangana, India', 'lng': 78.48259449005127}, {'city': 'Bowenpally (Akash Nagar), Secunderabad', 'type': '18', 'area': 'Telangana', 'country': 'India', 'PLZ': '500011', 'phone': '', 'street': '', 'POI': '', 'lat': 17.46527723247503, 'house_no': '', 'formatted_address': 'Bowenpally (Akash Nagar), Secunderabad 500011, Telangana, India', 'lng': 78.47798109054565}, {'city': 'New Bowenpally (Sri Malani Colony), Secunderabad', 'type': '18', 'area': 'Telangana', 'country': 'India', 'PLZ': '500011', 'phone': '', 'street': '', 'POI': '', 'lat': 17.4566495755242, 'house_no': '', 'formatted_address': 'New Bowenpally (Sri Malani Colony), Secunderabad 500011, Telangana, India', 'lng': 78.47839951515198}, {'city': 'New Bowenpally (Khadakpur), Secunderabad', 'type': '18', 'area': 'Telangana', 'country': 'India', 'PLZ': '500011', 'phone': '', 'street': '', 'POI': '', 'lat': 17.46393654391957, 'house_no': '', 'formatted_address': 'New Bowenpally (Khadakpur), Secunderabad 500011, Telangana, India', 'lng': 78.4734320640564}, {'city': 'Bowenpally (Bhavana Enclave), Secunderabad', 'type': '18', 'area': 'Telangana', 'country': 'India', 'PLZ': '500011', 'phone': '', 'street': '', 'POI': '', 'lat': 17.46388537240511, 'house_no': '', 'formatted_address': 'Bowenpally (Bhavana Enclave), Secunderabad 500011, Telangana, India', 'lng': 78.48059892654419}, {'city': 'Bowenpally (Dhana Laxmi Colony), Secunderabad', 'type': '18', 'area': 'Telangana', 'country': 'India', 'PLZ': '500011', 'phone': '', 'street': '', 'POI': '', 'lat': 17.46578894306157, 'house_no': '', 'formatted_address': 'Bowenpally (Dhana Laxmi Colony), Secunderabad 500011, Telangana, India', 'lng': 78.482186794281}, {'city': 'New Bowenpally (Pension Line), Secunderabad', 'type': '18', 'area': 'Telangana', 'country': 'India', 'PLZ': '500011', 'phone': '', 'street': '', 'POI': '', 'lat': 17.46417193270088, 'house_no': '', 'formatted_address': 'New Bowenpally (Pension Line), Secunderabad 500011, Telangana, India', 'lng': 78.47081422805786}, {'city': 'Bowenpally (Sowjanya Colony), Secunderabad', 'type': '18', 'area': 'Telangana', 'country': 'India', 'PLZ': '500011', 'phone': '', 'street': '', 'POI': '', 'lat': 17.46833724037048, 'house_no': '', 'formatted_address': 'Bowenpally (Sowjanya Colony), Secunderabad 500011, Telangana, India', 'lng': 78.47862482070923}, {'city': 'Hasmathpet (Panchsheel Colony), Secunderabad', 'type': '18', 'area': 'Telangana', 'country': 'India', 'PLZ': '500011', 'phone': '', 'street': '', 'POI': '', 'lat': 17.47221590556556, 'house_no': '', 'formatted_address': 'Hasmathpet (Panchsheel Colony), Secunderabad 500011, Telangana, India', 'lng': 78.48477244377136}, {'city': 'New Bowenpally (Nutan Colony), Secunderabad', 'type': '18', 'area': 'Telangana', 'country': 'India', 'PLZ': '500011', 'phone': '', 'street': '', 'POI': '', 'lat': 17.46516465595302, 'house_no': '', 'formatted_address': 'New Bowenpally (Nutan Colony), Secunderabad 500011, Telangana, India', 'lng': 78.47636103630066}, {'city': 'Mangal Hat (Sitarampet), Hyderabad', 'type': '18', 'area': 'Telangana', 'country': 'India', 'PLZ': '500012', 'phone': '', 'street': '', 'POI': '', 'lat': 17.3812041622655, 'house_no': '', 'formatted_address': 'Mangal Hat (Sitarampet), Hyderabad 500012, Telangana, India', 'lng': 78.46478462219238}, {'city': 'Gowliguda, Hyderabad', 'type': '18', 'area': 'Telangana', 'country': 'India', 'PLZ': '500012', 'phone': '', 'street': '', 'POI': '', 'lat': 17.37753346547434, 'house_no': '', 'formatted_address': 'Gowliguda, Hyderabad 500012, Telangana, India', 'lng': 78.47901105880737}, {'city': 'Gosha Mahal (Hindi Nagar), Hyderabad', 'type': '18', 'area': 'Telangana', 'country': 'India', 'PLZ': '500012', 'phone': '', 'street': '', 'POI': '', 'lat': 17.3835898197369, 'house_no': '', 'formatted_address': 'Gosha Mahal (Hindi Nagar), Hyderabad 500012, Telangana, India', 'lng': 78.46872210502625},